Facility ID,Facility Name,Short Description,Description,Facility Open Date,Facility Address 1,Facility Address 2,Facility City,Facility State,Facility Zip Code,Facility Phone Number,Facility Fax Number,Facility Website,Facility County Code,Facility County,Regional Office ID,Regional Office,Main Site Name,Main Site Facility ID,Operating Certificate Number,Operator Name,Operator Address 1,Operator Address 2,Operator City,Operator State,Operator Zip Code,Cooperator Name,Cooperator Address,Cooperator Address 2,Cooperator City,Cooperator State,Cooperator Zip Code,Ownership Type,Facility Latitude,Facility Longitude,Facility Location
620,Charles T Sitrin Health Care Center Inc,NH,Residential Health Care Facility - SNF,02/01/1989,2050 Tilden Avenue,,New Hartford,New York,13413,3157973114,,,32,Oneida,3,Central New York Regional Office,,,3227304N,"Charles T Sitrin Health Care Center, Inc",Box 1000 Tilden Avenue,,New Hartford,New York,13413,,,,,New York,,Not for Profit Corporation,43.05497,-75.228828,"(43.05497, -75.228828)"
654,Central Park Rehabilitation and Nursing Center,NH,Residential Health Care Facility - SNF,02/01/1989,116 Martin Luther King East,,Syracuse,New York,13205,3154751641,,,33,Onondaga,3,Central New York Regional Office,,,3301326N,"CPRNC, LLC",116 Martin Luther King East,,Syracuse,New York,13205,,,,,New York,,LLC,,,
970,Roscoe Rehabilitation and Nursing Center,NH,Residential Health Care Facility - SNF,01/01/1901,420 Rockland Road,,Roscoe,New York,12776,6074984121,6074985576,,52,Sullivan,6,Metropolitan Area Regional Office - New Rochelle,,,5262301N,"Roscoe Regional Healthcare, LLC",230 Hilton Avenue - Suite 4,,Hempstead,New York,11550,,,,,New York,,LLC,41.96225,-74.907913,"(41.96225, -74.907913)"
1465,Rockefeller University Hospital,HOSP,Hospital,01/01/1901,1230 York Avenue,,New York,New York,10021,2123277511,,,7093,New York,5,Metropolitan Area Regional Office - New York City,,,7002031H,The Rockefeller University Inc,1230 York Avenue,,New York,New York,10021,,,,,New York,,Not for Profit Corporation,40.762962,-73.956512,"(40.762962, -73.956512)"
3012,Buffalo Center for Rehabilitation and Nursing,NH,Residential Health Care Facility - SNF,01/01/1980,1014 Delaware Ave,,Buffalo,New York,14209,7168836782,7168836932,,14,Erie,1,Western Regional Office - Buffalo,,,1401341N,Delaware Operations Associates LLC,1014 Delaware Avenue,,Buffalo,New York,14209,,,,,New York,,LLC,42.911777,-78.870277,"(42.911777, -78.870277)"
3295,Elderwood at Hamburg,NH,Residential Health Care Facility - SNF,01/21/1985,5775 Maelou Drive,,Hamburg,New York,14075,7166482820,,,14,Erie,1,Western Regional Office - Buffalo,,,1430303N,"5775 Maelou Drive Operating Company, LLC",5775 Maelou Drive,31st Floor,Hamburg,New York,14075,,,,,New York,,LLC,42.730587,-78.833969,"(42.730587, -78.833969)"
6907,Castle Hill Medical Center of New York Inc.,DTC,Diagnostic and Treatment Center,01/01/2007,920 Castle Hill Avenue,,Bronx,New York,10473,7188240500,,,7094,Bronx,5,Metropolitan Area Regional Office - New York City,,,7000273R,Castle Hill Medical Center of New York Inc.,920 Castle Hill Avenue,,Bronx,New York,10473,,,,,New York,,Business Corporation,40.826061,-73.849594,"(40.826061, -73.849594)"
7016,Glen Arden Inc,NH,Residential Health Care Facility - SNF,11/04/1996,214 Harriman Drive,,Goshen,New York,10924,8452917800,,,35,Orange,6,Metropolitan Area Regional Office - New Rochelle,,,3523303N,"Glen Arden, Inc",6 Harriman Drive,,Goshen,New York,10924,Elant Inc.,620 Sleepy Hollow Road,,Briarcliff Manor,New York,10510,Not for Profit Corporation,41.387551,-74.315904,"(41.387551, -74.315904)"
7072,Huntington Hosp Dolan Fam Health Center,DTC,Diagnostic and Treatment Center,02/06/1997,284 Pulaski Road,,Green Lawn,New York,11740,6314255250,,,51,Suffolk,7,Metropolitan Area Regional Office - Long Island,,,5153207R,"Huntington Hospital Dolan Family Health Center, Inc",284 Pulaski Road,,Green Lawn,New York,11740,,,,,New York,,Not for Profit Corporation,40.857697,-73.387756,"(40.857697, -73.387756)"
7806,Harlem East Life Plan,DTC,Diagnostic and Treatment Center,08/31/1999,2367-69 Second Avenue,,New York,New York,10035,2128762300,,,7093,New York,5,Metropolitan Area Regional Office - New York City,,,7002165R,SES Operating Corp,2367-2369 Second Avenue,,New York,New York,10035,,,,,New York,,Business Corporation,40.800568,-73.935249,"(40.800568, -73.935249)"
7889,Physicians Choice Surgicenter,DTC,Diagnostic and Treatment Center,03/16/2000,82-12 151st Avenue,,Howard Beach,New York,11414,7183229800,,,7096,Queens,5,Metropolitan Area Regional Office - New York City,,,7003253R,Physicians Choice Surgicenter,82-12 151th Avenue,,Howard Beach,New York,11414,,,,,New York,,Business Corporation,40.667561,-73.852402,"(40.667561, -73.852402)"
8519,Carillon Dialysis LLC,DTC,Diagnostic and Treatment Center,08/09/2007,830 Park Avenue,,Huntington,New York,11743,6316300398,,,51,Suffolk,7,Metropolitan Area Regional Office - Long Island,,,5153210R,"Carillon Dialysis, LLC",820 Park Avenue,,Huntington,New York,11745,,,,,New York,,LLC,40.855377,-73.38932,"(40.855377, -73.38932)"
9042,St. Joseph's Dialysis - Regional,DTC,Diagnostic and Treatment Center,07/01/2009,973 James Street,,Syracuse,New York,13203,3157036700,,,33,Onondaga,3,Central New York Regional Office,,,3301221R,"SJLS, LLC",301 Prospect Avenue,,Syracuse,New York,13203,,,,,New York,,LLC,43.058708,-76.135658,"(43.058708, -76.135658)"
9250,The Burdett Care Center,HOSP,Hospital,10/01/2011,2215 Burdett Avenue,,Troy,New York,12180,5182713655,,,41,Rensselaer,4,Capital District Regional Office,,,4102004H,"The Burdett Care Center, Inc",2215 Burdett Avenue,Suite 200,Troy,New York,12180,,,,,New York,,Not for Profit Corporation,42.733574,-73.671455,"(42.733574, -73.671455)"
9288,Fishkill Dialysis Center,DTC,Diagnostic and Treatment Center,12/02/2011,60 Merritt Boulevard,,Fishkill,New York,12524,8454401280,8454401282,,13,Dutchess,6,Metropolitan Area Regional Office - New Rochelle,,,1320201R,"Fishkill Dialysis Center, LLC",60 Merritt Boulevard,,Fishkill,New York,12524,,,,,New York,,LLC,41.532356,-73.887177,"(41.532356, -73.887177)"
10016,"DSI Newburgh, LLC",DTC,Diagnostic and Treatment Center,02/06/2017,39-47 North Plank Road,,Newburgh,New York,12550,2123244696,,,35,Orange,6,Metropolitan Area Regional Office - New Rochelle,,,3563200R,"DSI Newburgh, LLC",39-47 North Plank Road,,Newburgh,New York,12550,,,,,New York,,LLC,41.5222,-74.030208,"(41.5222, -74.030208)"
10225,Bay Ridge Surgi-Center,DTC,Diagnostic and Treatment Center,11/23/2018,370 Bay Ridge Parkway,,Brooklyn,New York,11209,7188335800,,,7095,Kings,5,Metropolitan Area Regional Office - New York City,,,7001152R,"Bay Ridge Surgi-Center, LLC",370 Bay Ridge Parkway,,Brooklyn,New York,11209,,,,,New York,,LLC,40.630716,-74.025721,"(40.630716, -74.025721)"
1213,Covenant House,DTC,Diagnostic and Treatment Center,11/13/1980,460 West 41st Street,,New York,New York,10036,2126130300,,,7093,New York,5,Metropolitan Area Regional Office - New York City,,,7002116R,Covenant House,460 West 41st Street,,New York,New York,10036,,,,,New York,,Not for Profit Corporation,40.758739,-73.995537,"(40.758739, -73.995537)"
124,Elcor Nursing and Rehabilitation Center,NH,Residential Health Care Facility - SNF,02/01/1989,48 Colonial Drive,,Horseheads,New York,14845,6077390304,6077960540,,7,Chemung,2,Western Regional Office - Rochester,,,0722304N,"Elcor Operating Company, LLC",300 Gleed Avenue,,East Aurora,New York,14052,,,,,New York,,LLC,42.162086,-76.854225,"(42.162086, -76.854225)"
7899,Pelham Physical Medicine Inc,DTC,Diagnostic and Treatment Center,01/17/2003,2118 Williamsbridge Road,,Bronx,New York,10461,7188233900,,,7094,Bronx,5,Metropolitan Area Regional Office - New York City,,,7000256R,Pelham Physical Medicine Inc,2118 Williamsbridge Road,,New York,New York,10461,,,,,New York,,Business Corporation,40.855915,-73.85553,"(40.855915, -73.85553)"
1639,Mount Sinai Hospital - Mount Sinai Hospital of Queens,HOSP,Hospital,08/01/1979,25-10 30th Avenue,,Long Island City,New York,11102,7189321000,,,7096,Queens,5,Metropolitan Area Regional Office - New York City,Mount Sinai Hospital,1456,7002024H,The Mount Sinai Hospital,One Gustave L Levy Place,,New York,New York,10029,"Mount Sinai Hospitals Group, Inc.",One Gustave L. Levy Place,,New York,New York,10029,Not for Profit Corporation,40.768269,-73.924461,"(40.768269, -73.924461)"
6637,"All City Family Healthcare Center, Inc.",DTC,Diagnostic and Treatment Center,06/15/2004,3632 Nostrand Avenue,,Brooklyn,New York,11229,7183324409,,,7095,Kings,5,Metropolitan Area Regional Office - New York City,,,7001285R,All City Family Healthcare Center Inc,3636 Nostrand Avenue,,Brooklyn,New York,11229,,,,,New York,,Business Corporation,40.595226,-73.940964,"(40.595226, -73.940964)"
1178,BronxCare Hospital Center,HOSP,Hospital,01/01/1901,1650 Grand Concourse,,Bronx,New York,10457,7189018800,,,7094,Bronx,5,Metropolitan Area Regional Office - New York City,BronxCare Hospital Center,1164,7000001H,BronxCare Health System,1276 Fulton Avenue,,Bronx,New York,10456,,,,,New York,,Not for Profit Corporation,40.843609,-73.911545,"(40.843609, -73.911545)"
3089,Terence Cardinal Cooke Health Care Center,NH,Residential Health Care Facility - SNF,08/17/1983,1249 Fifth Avenue,,New York,New York,10029,2123603600,,,7093,New York,5,Metropolitan Area Regional Office - New York City,,,7002345N,Terence Cardinal Cooke Health Care Ctr,1249 Fifth Avenue,,New York,New York,10029,Catholic Health Care System,"205 Lexington Avenue, 3rd Floor",,New York,New York,10016,Not for Profit Corporation,40.794212,-73.951065,"(40.794212, -73.951065)"
683,Ontario Center for Rehabilitation and Healthcare,NH,Residential Health Care Facility - SNF,01/01/1901,3062 County Complex Drive,,Canandaigua,New York,14424,5853964340,5853964414,,34,Ontario,2,Western Regional Office - Rochester,,,3429304N,Ontario Operations Associates LLC,4770 White Plains Road,,Bronx,New York,10470,,,,,New York,,LLC,42.884579,-77.211769,"(42.884579, -77.211769)"
9006,"FedCare, Inc.",DTC,Diagnostic and Treatment Center,05/14/2008,344 West 51 Street,,New York,New York,10019,2123140600,,,7093,New York,5,Metropolitan Area Regional Office - New York City,,,7002813R,"FedCare, Inc.",344 West 51st Street,,New York,New York,10019,,,,,New York,,Not for Profit Corporation,40.76363,-73.98748,"(40.76363, -73.98748)"
274,Comprehensive Rehabilitation and Nursing Center at Williamsville,NH,Residential Health Care Facility - SNF,01/01/1901,147 Reist Street,,Williamsville,New York,14221,7166335400,7166336404,,14,Erie,1,Western Regional Office - Buffalo,,,1421308N,Comprehensive at Williamsville LLC,147 and 149 Reist Street,,Williamsville,New York,14221,,,,,New York,,LLC,42.965672,-78.751503,"(42.965672, -78.751503)"
6141,Helen Hayes Hospital RHCF,NH,Residential Health Care Facility - SNF,05/24/2000,51 N Route 9W,,West Haverstraw,New York,10993,8457864000,,,43,Rockland,6,Metropolitan Area Regional Office - New Rochelle,,,4322300N,New York State Department of Health,Empire State Plaza,Corning Tower  Room 1683,Albany,New York,12237,,,,,New York,,State,41.213886,-73.986,"(41.213886, -73.986)"
3855,Oneida County Health Department,DTC,Diagnostic and Treatment Center,01/01/2000,406 Elizabeth Ave,,Utica,New York,13501,3157986400,,,32,Oneida,3,Central New York Regional Office,,,3202204R,Oneida County Health Department,800 Park Street,,Utica,New York,13501,,,,,New York,,County,43.099213,-75.224884,"(43.099213, -75.224884)"
181,Vassar Brothers Medical Center,HOSP,Hospital,01/01/1901,45 Reade Place,,Poughkeepsie,New York,12601,8454548500,,,13,Dutchess,6,Metropolitan Area Regional Office - New Rochelle,,,1302001H,"Health Quest Systems, Inc.",45 Reade Place,,Poughkeepsie,New York,12601,Vassar Brothers Hospital Inc,Reade Place,,Poughkeepsie,New York,12601,Not for Profit Corporation,41.694523,-73.935799,"(41.694523, -73.935799)"
6664,"Saratoga-Schenectady Endoscopy Center, LLC",DTC,Diagnostic and Treatment Center,07/01/2004,1 Wellness Drive,,Burnt Hills,New York,12027,5188311550,,,45,Saratoga,4,Capital District Regional Office,,,4550200R,"Saratoga-Schenectady Endoscopy Center, LLC","848 Route 50, P.O. Box 419",,Burnt Hills,New York,12027,,,,,New York,,LLC,42.917172,-73.891928,"(42.917172, -73.891928)"
6536,"Brighton Surgery Center,LLC",DTC,Diagnostic and Treatment Center,05/07/2003,980 Westfall Road,,Rochester,New York,14618,5852958500,,,27,Monroe,2,Western Regional Office - Rochester,,,2701237R,"Brighton Surgery Center, LLC",980 Westfall Road,,Rochester,New York,14618,,,,,New York,,LLC,43.115421,-77.595154,"(43.115421, -77.595154)"
892,San Simeon By the Sound Center for Nursing&Rehabilitation,NH,Residential Health Care Facility - SNF,02/01/1989,"61700 Route 48, PO Box 2122",,Greenport,New York,11944,6314772110,,,51,Suffolk,7,Metropolitan Area Regional Office - Long Island,,,5127302N,San Simeon By the Sound Center for Nursing & Rehabilitation,"67100 Route 48, P.O. Box 2122",,Greenport,New York,11944,,,,,New York,,Not for Profit Corporation,41.100346,-72.388855,"(41.100346, -72.388855)"
4963,Family Health Network of Central New York Inc,DTC,Diagnostic and Treatment Center,06/23/2003,4038 West Road,,Cortland,New York,13045,6077533797,,,11,Cortland,3,Central New York Regional Office,,,1101201R,Family Health Network of Central New York Inc,11 Avena Avenue,,Cortland,New York,13045,,,,,New York,,Not for Profit Corporation,42.602123,-76.201675,"(42.602123, -76.201675)"
647,Jewish Home of Central New York,NH,Residential Health Care Facility - SNF,01/01/1901,4101 E Genesee St,,Syracuse,New York,13214,3154469111,,,33,Onondaga,3,Central New York Regional Office,,,3301309N,Jewish Home of Central NY Inc,4101 East Genesee Street,,Syracuse,New York,13214,,,,,New York,,Not for Profit Corporation,43.036987,-76.075798,"(43.036987, -76.075798)"
10302,HSS West Side ASC,DTC,Diagnostic and Treatment Center,07/16/2019,600-610 West 58th Street,,New York,New York,10019,2127747026,,,7093,New York,5,Metropolitan Area Regional Office - New York City,,,7002815R,"Hospital for Special Surgery West Side Ambulatory Surgery Center, LLC",600-610 West 58th Street,,New York,New York,10019,,,,,New York,,LLC,,,
1703,Brookhaven Rehabilitation & Health Care Center LLC,NH,Residential Health Care Facility - SNF,01/01/1970,250 Beach 17th Street,,Far Rockaway,New York,11691,7184717500,7183279074,,7096,Queens,5,Metropolitan Area Regional Office - New York City,,,7003399N,Brookhaven Rehabilitation & Health Care Center LLC,250 Beach 17th Street,,Far Rockaway,New York,11691,,,,,New York,,LLC,40.596481,-73.751122,"(40.596481, -73.751122)"
1176,SBH Health System,HOSP,Hospital,01/01/1901,4422 Third Avenue,,Bronx,New York,10457,7189606100,,,7094,Bronx,5,Metropolitan Area Regional Office - New York City,,,7000014H,St Barnabas Hospital Inc,4422 Third Avenue,,Bronx,New York,10457,,,,,New York,,Not for Profit Corporation,40.853909,-73.891014,"(40.853909, -73.891014)"
484,St. Mary's Healthcare,HOSP,Hospital,01/01/1901,427 Guy Park Avenue,,Amsterdam,New York,12010,5188421900,,,28,Montgomery,4,Capital District Regional Office,,,2801001H,St. Mary's Healthcare,427 Guy Park Ave,,Amsterdam,New York,12010,,,,,New York,,Not for Profit Corporation,42.953758,-74.216194,"(42.953758, -74.216194)"
4285,Hamilton Park Nursing and Rehabilitation Center,NH,Residential Health Care Facility - SNF,06/27/1990,691 92 Street,,Brooklyn,New York,11228,7185671820,7185671833,,7095,Kings,5,Metropolitan Area Regional Office - New York City,,,7001034N,"Hamilton Park Multicare, LLC",699 92nd Street,,Brooklyn,New York,11228,,,,,New York,,LLC,40.61515,-74.023781,"(40.61515, -74.023781)"
9059,Crouse Hospital - Commonwealth Division,HOSP,Hospital,06/01/2009,6010 East Malloy Road,,Syracuse,New York,13211,3154342470,3154378366,,33,Onondaga,3,Central New York Regional Office,Crouse Hospital,636,3301008H,Crouse Health Hospital Inc,736 Irving Avenue,,Syracuse,New York,13210,"Crouse Health System, Inc.",736 Irving Avenue,,Syracuse,New York,13210,Not for Profit Corporation,43.099155,-76.098633,"(43.099155, -76.098633)"
6185,OrthoNY Ambulatory Surgery Center - Albany,DTC,Diagnostic and Treatment Center,08/25/2000,3 Atrium Drive Suite 150,,Albany,New York,12205,5184532361,,,1,Albany,4,Capital District Regional Office,,,0101219R,Executive Woods Ambulatory Surgery Center LLC,3 Atrium Drive,,Albany,New York,12205,,,,,New York,,LLC,42.688889,-73.776093,"(42.688889, -73.776093)"
873,Ira Davenport Memorial Hospital,HOSP,Hospital,01/01/1901,7571 State Route 54,,Bath,New York,14810,6077768500,,,50,Steuben,2,Western Regional Office - Rochester,,,5022000H,Ira Davenport Memorial Hospital Inc,Po Box 350 Route 54,,Bath,New York,14810,Arnot Ogden Medical Center,600 Roe Avenue,,Elmira,New York,14901,Not for Profit Corporation,42.372952,-77.278656,"(42.372952, -77.278656)"
7734,Seneca Hill Manor Inc,NH,Residential Health Care Facility - SNF,03/01/1999,20 Manor Drive,,Oswego,New York,13126,3153495300,,,37,Oswego,3,Central New York Regional Office,,,3702312N,Seneca Hill Manor Inc,20 Manor Drive,,Oswego,New York,13126,,,,,New York,,Not for Profit Corporation,43.397186,-76.459465,"(43.397186, -76.459465)"
1,Albany Medical Center Hospital,HOSP,Hospital,01/01/1901,43 New Scotland Avenue,,Albany,New York,12208,5182623474,5182623398,,1,Albany,4,Capital District Regional Office,,,0101000H,Albany Medical Center Hospital,New Scotland Avenue,,Albany,New York,12208,Albany Medical Center,New Scotland Avenue,,Albany,New York,12208,Not for Profit Corporation,42.65337,-73.773834,"(42.65337, -73.773834)"
10325,"Northern Medical Center, Inc.",DTC,Diagnostic and Treatment Center,08/14/2019,14 Jason Place,,Middletown,New York,10940,9177314858,,,35,Orange,6,Metropolitan Area Regional Office - New Rochelle,,,3501206R,"Northern Medical Center, Inc.",42 Jason Place,,Middletown,New York,10940,,,,,New York,,Not for Profit Corporation,,,
3765,Salem Hills Rehabilitation and Nursing Center,NH,Residential Health Care Facility - SNF,02/01/1989,"539 Route 22, P.O. Box 360",,Purdys,New York,10578,9142773691,,,59,Westchester,6,Metropolitan Area Regional Office - New Rochelle,,,5960304N,"Salem Acquisition I, LLC","539 Route 22, P.O. Box 360",,Purdys,New York,10578,,,,,New York,,LLC,41.328899,-73.656799,"(41.328899, -73.656799)"
9952,The Steven and Alexandra Cohen Pediatric Long Term Care Pavilion,NH,Residential Health Care Facility - SNF,09/07/2016,95 Bradhurst Avenue,,Valhalla,New York,10595,9148312582,9143473865,,59,Westchester,6,Metropolitan Area Regional Office - New Rochelle,,,5957305N,Blythedale Childrens Hospital Inc,Bradhurst Avenue,,Valhalla,New York,10595,,,,,New York,,Not for Profit Corporation,41.074072,-73.800032,"(41.074072, -73.800032)"
1031,Newark Manor Nursing Home Inc,NH,Residential Health Care Facility - SNF,02/01/1989,222 West Pearl Street,,Newark,New York,14513,3153314690,,,58,Wayne,2,Western Regional Office - Rochester,,,5820302N,Newark Manor Nursing Home Inc,222 West Pearl Street,,Newark,New York,14513,,,,,New York,,Business Corporation,43.062256,-77.100143,"(43.062256, -77.100143)"
1241,Riverdale Nursing Home,NH,Residential Health Care Facility - SNF,02/01/1989,641 West 230th St,,Bronx,New York,10463,7187964800,,,7094,Bronx,5,Metropolitan Area Regional Office - New York City,,,7000357N,Riverdale Nursing Home Inc,641 West 230th Street,,Bronx,New York,10463,,,,,New York,,Business Corporation,40.882172,-73.914978,"(40.882172, -73.914978)"
6384,New York Center for Rehabilitation & Nursing,NH,Residential Health Care Facility - SNF,04/25/2002,26-13 21st Street,,Astoria,New York,11102,7186264800,,,7096,Queens,5,Metropolitan Area Regional Office - New York City,,,7003405N,"New York Rehabilitation Care Management, LLC",26-13 21st Street,,Astoria,New York,11102,,,,,New York,,LLC,40.773117,-73.925148,"(40.773117, -73.925148)"
156,Livingston Hills Nursing and Rehabilitation Center,NH,Residential Health Care Facility - SNF,02/01/1989,2781 Route 9,P.O. Box 95,Livingston,New York,12541,5188513041,,,10,Columbia,4,Capital District Regional Office,,,1063302N,Livingston S and V Operations LLC,"Gutnicki LLP, 4711 Gold Road, Suite 200",,Skokie,New York,60076,,,,,New York,,LLC,42.139454,-73.784914,"(42.139454, -73.784914)"
3433,Smithtown Center for Rehabilitation & Nursing Care,NH,Residential Health Care Facility - SNF,02/26/1992,391 North Country Road,,Smithtown,New York,11787,6313612020,,,51,Suffolk,7,Metropolitan Area Regional Office - Long Island,,,5157314N,"Smithtown Health Care Management, LLC",391 North Country Road,,Smithtown,New York,11787,,,,,New York,,LLC,40.872643,-73.171196,"(40.872643, -73.171196)"
9514,Vestal Park Rehabilitation and Nursing Center,NH,Residential Health Care Facility - SNF,05/11/2012,105 West Sheedy Road,,Vestal,New York,13850,6077544105,,,3,Broome,3,Central New York Regional Office,,,0364302N,"VRNC, LLC",105 West Sheedy Road,Suite 225,Vestal,New York,13850,,,,,New York,,LLC,42.05432,-76.021143,"(42.05432, -76.021143)"
896,St Charles Hospital,HOSP,Hospital,01/01/1901,200 Belle Terre Road,,Port Jefferson,New York,11777,6314746600,,,51,Suffolk,7,Metropolitan Area Regional Office - Long Island,,,5149001H,"Catholic Health System of Long Island, Inc.",1 Huntington Quadrangle,,Melville,New York,11747,St Charles Hosp and Rehab Ctr Inc,200 Bell Terre Road,,Port Jefferson,New York,11777,Not for Profit Corporation,40.947533,-73.060081,"(40.947533, -73.060081)"
655,St Camillus Residential Health Care Facility,NH,Residential Health Care Facility - SNF,01/01/1901,813 Fay Road,,Syracuse,New York,13219,3154882951,,,33,Onondaga,3,Central New York Regional Office,,,3301321N,St Camillus Residential Health Care Facility,813 Fay Road,,Syracuse,New York,13219,,,,,New York,,Not for Profit Corporation,43.035419,-76.208199,"(43.035419, -76.208199)"
762,Troy Center for Rehabilitation and Nursing,NH,Residential Health Care Facility - SNF,02/01/1979,49 Marvin Avenue,,Troy,New York,12180,5182736646,5182730168,,41,Rensselaer,4,Capital District Regional Office,,,4102313N,CLR Troy LLC,49 Marvin Avenue,,Troy,New York,12180,,,,,New York,,LLC,42.697277,-73.696358,"(42.697277, -73.696358)"
339,United Memorial Medical Center North Street Campus,HOSP,Hospital,01/01/1901,127 North St,,Batavia,New York,14020,5853436030,,,18,Genesee,1,Western Regional Office - Buffalo,,,1801000H,United Memorial Medical Center,127 North St,,Batavia,New York,14020,Rochester Regional Health,89 Genesee Street,,Rochester,New York,14611,Not for Profit Corporation,43.00404,-78.177475,"(43.00404, -78.177475)"
10072,South Lewis Middle/High School,,School Based Primary Care Hospital - Critical Access Extension Clinic,09/01/2017,4264 E. Road,,Turin,New York,13473,3153765852,,,24,Lewis,3,Central New York Regional Office,Lewis County General Hospital,383,2424700C,County of Lewis,Court House,,Lowville,New York,13367,,,,,New York,,County,43.636304,-75.395925,"(43.636304, -75.395925)"
976,River View Rehabilitation and Nursing Care Center,NH,Residential Health Care Facility - SNF,02/01/1980,510 Fifth Avenue,,Owego,New York,13827,6076872594,6076879470,,53,Tioga,3,Central New York Regional Office,,,5324303N,Riverview Facility Operations LLC,510 5th Ave,,Owego,New York,13827,,,,,New York,,LLC,42.106297,-76.249535,"(42.106297, -76.249535)"
1090,Victoria Home,NH,Residential Health Care Facility - SNF,01/01/1991,25 N Malcolm Street,,Ossining,New York,10562,9149412450,,,59,Westchester,6,Metropolitan Area Regional Office - New Rochelle,,,5905305N,Victoria Home,North Malcolm Street,,Ossining,New York,10562,,,,,New York,,Not for Profit Corporation,41.16415,-73.865364,"(41.16415, -73.865364)"
1469,Mount Sinai St. Luke's,HOSP,Hospital,01/01/1901,1111 Amsterdam Avenue,,New York,New York,10025,2125234295,,,7093,New York,5,Metropolitan Area Regional Office - New York City,Mount Sinai West,1466,7002032H,St Lukes Roosevelt Hospital Center Inc,Amsterdam Avenue At 114th Street,,New York,New York,10025,"Mount Sinai Hospitals Group, Inc.",One Gustave L. Levy Place,,New York,New York,10029,Not for Profit Corporation,40.805912,-73.961639,"(40.805912, -73.961639)"
6678,Linden Surgery Center,DTC,Diagnostic and Treatment Center,04/27/2006,10 Hagen Drive,,Rochester,New York,14625,5852678200,5852678256,,27,Monroe,2,Western Regional Office - Rochester,,,2701242R,"Unity Linden Oaks Surgery Center, LLC",10 Hagen Drive,,Rochester,New York,14625,Rochester Regional Health,89 Genesee Street,,Rochester,New York,14611,LLC,43.126083,-77.516708,"(43.126083, -77.516708)"
203,Renaissance Rehabilitation and Nursing Care Center,NH,Residential Health Care Facility - SNF,01/01/1991,4975 Albany Post Road,,Staatsburg,New York,12580,8458894500,8458894309,,13,Dutchess,6,Metropolitan Area Regional Office - New Rochelle,,,1356304N,"Renaissance Healthcare Group, LLC",4975 Albany Post Road,,Staatsburg,New York,12580,,,,,New York,,LLC,41.83255,-73.93364,"(41.83255, -73.93364)"
6656,"Physicare Multi-Services, Ltd",DTC,Diagnostic and Treatment Center,05/20/2004,3508 Flatlands Avenue,,Brooklyn,New York,11234,7182533900,,,7095,Kings,5,Metropolitan Area Regional Office - New York City,,,7001116R,"Physicare Multi-Services, Ltd",3508 Flatlands Avenue,,Brooklyn,New York,11234,,,,,New York,,Business Corporation,40.617695,-73.940674,"(40.617695, -73.940674)"
1277,East Haven Nursing & Rehabilitation Center,NH,Residential Health Care Facility - SNF,01/01/1991,2323-27 Eastchester Road,,Bronx,New York,10469,7186552848,,,7094,Bronx,5,Metropolitan Area Regional Office - New York City,,,7000360N,"East Haven Nursing & Rehabilitation Center, LLC",2323-27 Eastchester Road,,Bronx,New York,10469,,,,,New York,,LLC,40.859859,-73.843124,"(40.859859, -73.843124)"
1401,Sea Crest Nursing and Rehabilitation Center,NH,Residential Health Care Facility - SNF,08/01/1979,3035 West 24th St,,Brooklyn,New York,11224,7183724500,7183724579,,7095,Kings,5,Metropolitan Area Regional Office - New York City,,,7001806N,"Sea Crest Acquisition 1, LLC",3035 W. 24th Street,,Brooklyn,New York,11224,,,,,New York,,LLC,40.572155,-73.990364,"(40.572155, -73.990364)"
6250,Adira at Riverside Rehabilitation and Nursing,NH,Residential Health Care Facility - SNF,05/29/2001,120 Odell Ave,,Yonkers,New York,10701,9149643333,,,59,Westchester,6,Metropolitan Area Regional Office - New Rochelle,,,5907318N,L&A Operations LLC,1772 58th Street,,Brooklyn,New York,11204,,,,,New York,,LLC,40.970741,-73.886269,"(40.970741, -73.886269)"
434,The Brook at High Falls Nursing Home and Rehabilitation Center,NH,Residential Health Care Facility - SNF,02/01/1980,2150 St. Paul Street,,Rochester,New York,14621,5853425540,5853423539,,27,Monroe,2,Western Regional Office - Rochester,,,2701365N,AGA Operating LLC,2150 St. Paul Street,,Rochester,New York,14621,,,,,New York,,LLC,43.195732,-77.61779,"(43.195732, -77.61779)"
527,Mount Sinai South Nassau,HOSP,Hospital,01/01/1901,One Healthy Way,,Oceanside,New York,11572,5166323000,,,29,Nassau,7,Metropolitan Area Regional Office - Long Island,,,2950001H,South Nassau Communities Hospital Inc,2445 Oceanside Road,,Oceanside,New York,11572,"Mount Sinai Hospitals Group, Inc.",One Gustave L. Levy Place,,New York,New York,10029,Not for Profit Corporation,40.649601,-73.6315,"(40.649601, -73.6315)"
6869,"Long Island Center for Digestive Health, LLC",DTC,Diagnostic and Treatment Center,06/15/2006,106 Charles Lindbergh Boulevard,,Uniondale,New York,11553,5167941868,,,29,Nassau,7,Metropolitan Area Regional Office - Long Island,,,2905203R,"Long Island Center for Digestive Health, LLC",1103 Stewart Avenue,,Garden City,New York,11530,,,,,New York,,LLC,40.726667,-73.602846,"(40.726667, -73.602846)"
4826,Seton Health at Schuyler Ridge Residential Healthcare,NH,Residential Health Care Facility - SNF,02/11/1994,1 Abele Boulevard,,Clifton Park,New York,12065,5183711400,,,45,Saratoga,4,Capital District Regional Office,,,4552300N,Seton Health at Schuyler Ridge Residential Healthcare,74 New Turnpike Road,,Troy,New York,12182,St. Peter's Health Partners,315 South Manning Boulevard,,Albany,New York,12208,Not for Profit Corporation,42.868931,-73.781731,"(42.868931, -73.781731)"
7111,"Newtown Dialysis Center, Inc",DTC,Diagnostic and Treatment Center,07/16/1997,29-20 Newtown Avenue,,Astoria,New York,11102,7187282222,,,7096,Queens,5,Metropolitan Area Regional Office - New York City,,,7003247R,"Newtown Dialysis Center, Inc",29-20 Newtown Avenue,,Astoria,New York,11102,,,,,New York,,Business Corporation,40.768738,-73.92173,"(40.768738, -73.92173)"
7245,"Renal Care of Rockland, Inc",DTC,Diagnostic and Treatment Center,10/01/1997,131 Route 303,,Valley Cottage,New York,10989,8452682777,,,43,Rockland,6,Metropolitan Area Regional Office - New Rochelle,,,4350202R,"Renal Care of Rockland, Inc",131 Route 303,,Valley Cottage,New York,10989,,,,,New York,,Business Corporation,41.1199,-73.942245,"(41.1199, -73.942245)"
9793,Eye Surgery Center of New York,DTC,Diagnostic and Treatment Center,04/07/2015,"3130 Grand Concourse, Suite B5",,Bronx,New York,10458,,,,7094,Bronx,5,Metropolitan Area Regional Office - New York City,,,7000283R,"Mark Fromer, LLC",550 Park Avenue,,New York,New York,10065,,,,,New York,,LLC,40.875186,-73.885819,"(40.875186, -73.885819)"
4555,Iroquois Nursing Home Inc,NH,Residential Health Care Facility - SNF,11/02/1992,4600 Southwood Heights Drive,,Jamesville,New York,13078,3154691300,,,33,Onondaga,3,Central New York Regional Office,,,3353300N,Iroquois Nursing Home Inc,4600 Southwood Hghts Drive,,Jamesville,New York,13078,,,,,New York,,Not for Profit Corporation,42.995564,-76.12001,"(42.995564, -76.12001)"
10310,The New York Proton Center,DTC,Diagnostic and Treatment Center,07/19/2019,225 East 126th Street,,New York,New York,10035,6469689068,,,7093,New York,5,Metropolitan Area Regional Office - New York City,,,7002816R,The New York Proton Center,225 East 126th Street,,New York,New York,10035,,,,,New York,,Not for Profit Corporation,,,
1430,Atrium Center for Rehabilitation and Nursing,NH,Residential Health Care Facility - SNF,01/01/1991,630 E 104th Street,,Brooklyn,New York,11236,7182403100,,,7095,Kings,5,Metropolitan Area Regional Office - New York City,,,7001378N,River Manor Corporation,630 East 104th Street,,Brooklyn,New York,11236,,,,,New York,,Business Corporation,40.64941,-73.898132,"(40.64941, -73.898132)"
8547,East End Dialysis Center,DTC,Diagnostic and Treatment Center,11/08/2007,762 Harrison Avenue,,Riverhead,New York,11901,6313692005,,,51,Suffolk,7,Metropolitan Area Regional Office - Long Island,,,5155204R,"East End Dialysis Management, LLC",762 Harrison Avenue,,Riverhead,New York,11901,,,,,New York,,LLC,40.928474,-72.678932,"(40.928474, -72.678932)"
5,St Peters Hospital,HOSP,Hospital,01/01/1901,315 South Manning Blvd,,Albany,New York,12208,5184541550,,,1,Albany,4,Capital District Regional Office,,,0101004H,St Peters Hospital Inc,315 South Manning Blvd,,Albany,New York,12208,St. Peter's Health Partners,315 South Manning Boulevard,,Albany,New York,12208,Not for Profit Corporation,42.657539,-73.803879,"(42.657539, -73.803879)"
1750,"Clove Lakes Health Care and Rehabilitation Center, Inc",NH,Residential Health Care Facility - SNF,08/01/1979,25 Fanning Street,,Staten Island,New York,10314,7182897900,,,7097,Richmond,5,Metropolitan Area Regional Office - New York City,,,7004321N,"Clove Lakes Health Care & Rehabilitation Center, Inc",25 Fanning St Box 140703,,Staten Island,New York,10314,,,,,New York,,Business Corporation,40.608437,-74.122993,"(40.608437, -74.122993)"
9326,Brooklyn Dialysis Center,DTC,Diagnostic and Treatment Center,09/05/2012,915 Dean Street,,Brooklyn,New York,11238,3479152140,7182304185,,7095,Kings,5,Metropolitan Area Regional Office - New York City,,,7001131R,"Brooklyn Dialysis Center, LLC",915 Dean Street,,Brooklyn,New York,11238,,,,,New York,,LLC,40.678535,-73.959801,"(40.678535, -73.959801)"
3901,JGB Rehabilitation Corp,DTC,Diagnostic and Treatment Center,01/11/1988,80 West End Avenue,,New York,New York,10023,2127697879,,,7093,New York,5,Metropolitan Area Regional Office - New York City,,,7002131R,JGB Rehabilitation Corp,15 West 65th Street,,New York,New York,10023,,,,,New York,,Not for Profit Corporation,40.774257,-73.98805,"(40.774257, -73.98805)"
839,Schenectady Center for Rehabilitation and Nursing,NH,Residential Health Care Facility - SNF,02/01/1989,526 Altamont Ave,,Schenectady,New York,12303,5183466121,5183467512,,46,Schenectady,4,Capital District Regional Office,,,4601307N,CLR Schenectady LLC,526 Altamont Avenue,,Schenectady,New York,12303,,,,,New York,,LLC,42.792469,-73.933044,"(42.792469, -73.933044)"
213,Mercy Hospital of Buffalo,HOSP,Hospital,01/01/1901,565 Abbott Road,,Buffalo,New York,14220,7168267000,,,14,Erie,1,Western Regional Office - Buffalo,,,1401008H,Mercy Hospital of Buffalo Inc,565 Abbott Road,,Buffalo,New York,14220,"Catholic Health System, Inc.",144 Genesee Street,,Buffalo,New York,14203,Not for Profit Corporation,42.84853,-78.812859,"(42.84853, -78.812859)"
482,St. Mary's Healthcare - Amsterdam Memorial Campus,HOSP,Hospital,01/01/1901,4988 Sthwy 30,,Amsterdam,New York,12010,5188423100,,,28,Montgomery,4,Capital District Regional Office,St. Mary's Healthcare,484,2801001H,St. Mary's Healthcare,427 Guy Park Ave,,Amsterdam,New York,12010,,,,,New York,,Not for Profit Corporation,42.961201,-74.186272,"(42.961201, -74.186272)"
716,The Villages of Orleans Health and Rehabilitation Center,NH,Residential Health Care Facility - SNF,01/01/1901,14012 Route 31,,Albion,New York,14411,5855893225,5855896567,,36,Orleans,1,Western Regional Office - Buffalo,,,3620301N,Comprehensive at Orleans LLC,14012 Route 31,,Albion,New York,14411,,,,,New York,,LLC,43.240555,-78.216614,"(43.240555, -78.216614)"
1756,Staten Island Care Center,NH,Residential Health Care Facility - SNF,02/01/1989,200 Lafayette Avenue,,Staten Island,New York,10301,7184489000,,,7097,Richmond,5,Metropolitan Area Regional Office - New York City,,,7004314N,Staten Island Care Center LLC,200 Layfayette Avenue,,Staten Island,New York,10301,,,,,New York,,LLC,40.640015,-74.094337,"(40.640015, -74.094337)"
825,Saratoga Center for Rehab and Skilled Nursing Care,NH,Residential Health Care Facility - SNF,01/01/1901,149 Ballston Avenue,,Ballston Spa,New York,12020,5188852288,,,45,Saratoga,4,Capital District Regional Office,,,4520302N,Saratoga Center for Care LLC,149 Ballston Avenue,,Ballston Spa,New York,12020,,,,,New York,,LLC,42.996357,-73.853653,"(42.996357, -73.853653)"
1226,Gold Crest Care Center,NH,Residential Health Care Facility - SNF,03/15/1979,2316 Bruner Avenue,,Bronx,New York,10469,7188826400,,,7094,Bronx,5,Metropolitan Area Regional Office - New York City,,,7000376N,Gold Crest Care Center,2316 Bruner Ave,,Bronx,New York,10469,,,,,New York,,Business Corporation,40.859093,-73.833366,"(40.859093, -73.833366)"
953,Luxor Nursing and Rehabilitation at Mills Pond,NH,Residential Health Care Facility - SNF,01/01/1991,273 Moriches Road,,St James,New York,11780,6318628990,6316214060,,51,Suffolk,7,Metropolitan Area Regional Office - Long Island,,,5157319N,S&J Operational LLC,273 Moriches Road,,St James,New York,11780,,,,,New York,,LLC,40.878963,-73.141792,"(40.878963, -73.141792)"
9148,"SurgiCare of Manhattan, LLC",DTC,Diagnostic and Treatment Center,05/18/2010,800 Second Avenue,7th Floor,New York,New York,10017,2124191016,2128670342,,7093,New York,5,Metropolitan Area Regional Office - New York City,,,7002194R,"SurgiCare of Manhattan, LLC",800 Second Avenue,7th Floor,New York,New York,10017,,,,,New York,,LLC,40.749851,-73.972107,"(40.749851, -73.972107)"
1154,Wyoming County Community Hospital SNF,NH,Residential Health Care Facility - SNF,01/01/1901,400 North Main Street,,Warsaw,New York,14569,5857862233,,,60,Wyoming,1,Western Regional Office - Buffalo,,,6027000N,County of Wyoming,Wyoming County Courthouse,,Warsaw,New York,14569,,,,,New York,,County,42.753513,-78.132454,"(42.753513, -78.132454)"
5905,Kendal at Ithaca,NH,Residential Health Care Facility - SNF,12/26/1995,2230 North Triphammer Road,,Ithaca,New York,14850,6072665310,,,54,Tompkins,3,Central New York Regional Office,,,5401308N,"Kendal at Ithaca, Inc",2230 North Triphammer Road,,Ithaca,New York,14850,Kendal New York,1010 Kendal Way,,Sleepy Hollow,New York,10591,Not for Profit Corporation,42.476295,-76.48188,"(42.476295, -76.48188)"
516,The Grand Pavilion for Rehab & Nursing at Rockville Centre,NH,Residential Health Care Facility - SNF,01/01/1901,41 Maine Avenue,,Rockville Centre,New York,11570,5165367730,5165364052,,29,Nassau,7,Metropolitan Area Regional Office - Long Island,,,2909305N,"Rockville Operating, LLC",41 Main Avenue,,Rockville Center,New York,11570,,,,,New York,,LLC,40.664047,-73.651192,"(40.664047, -73.651192)"
1252,Morningside Nursing and Rehabilitation Center,NH,Residential Health Care Facility - SNF,01/01/1901,1000 Pelham Parkway South,,Bronx,New York,10461,7184098200,,,7094,Bronx,5,Metropolitan Area Regional Office - New York City,,,7000391N,"Morningside Acquisition I, LLC",1000 Pelham Parkway South,,Bronx,New York,10461,,,,,New York,,LLC,40.856792,-73.859024,"(40.856792, -73.859024)"
409,Highland Hospital,HOSP,Hospital,01/01/1901,1000 South Avenue,,Rochester,New York,14620,5854732200,,,27,Monroe,2,Western Regional Office - Rochester,,,2701001H,"Strong Partners Health System, Inc.",601 Elmwood Avenue,,Rochester,New York,14642,Highland Hospital of Rochester Inc,South Avenue At Bellevue Dr,,Rochester,New York,14620,Not for Profit Corporation,43.135769,-77.607544,"(43.135769, -77.607544)"
1122,New York-Presbyterian Lawrence Hospital,HOSP,Hospital,01/01/1901,55 Palmer Avenue,,Bronxville,New York,10708,9147871000,,,59,Westchester,6,Metropolitan Area Regional Office - New Rochelle,New York-Presbyterian Hospital - New York Weill Cornell Center,1458,7002054H,The New York and Presbyterian Hospital,622 West 168th Street,,New York,New York,10032,,,,,New York,,Not for Profit Corporation,40.941673,-73.836334,"(40.941673, -73.836334)"
1727,Mt Vernon Neighborhood Health Center,DTC,Diagnostic and Treatment Center,05/18/1982,107 West Fourth Street,,Mt Vernon,New York,10550,9146997200,,,59,Westchester,6,Metropolitan Area Regional Office - New Rochelle,,,5903200R,Mt Vernon Neighborhood Health Center Inc,107 W 4th Street,,Mt Vernon,New York,10550,,,,,New York,,Not for Profit Corporation,40.903416,-73.838448,"(40.903416, -73.838448)"
3730,Community Health Center of the North Country,DTC,Diagnostic and Treatment Center,05/14/1999,4 Commerce Lane,,Canton,New York,13617,3153799667,,,44,Saint Lawrence,3,Central New York Regional Office,,,4420200R,UCPA of the North Country Inc,101 Main Street,,Canton,New York,13617,,,,,New York,,Not for Profit Corporation,44.589157,-75.177544,"(44.589157, -75.177544)"
4771,Refuah Health Center,DTC,Diagnostic and Treatment Center,06/16/1993,728 North Main Street,,Spring Valley,New York,10977,8453549300,8453549448,,43,Rockland,6,Metropolitan Area Regional Office - New Rochelle,,,4353202R,Refuah Health Center,728 North Main Street,,Spring Valley,New York,10977,,,,,New York,,Not for Profit Corporation,41.13995,-74.035431,"(41.13995, -74.035431)"
12,Oswego Hospital - Alvin L Krakau Comm Mtl Health Center Div,HOSP,Hospital,02/01/1981,74 Bunner Street,,Oswego,New York,13126,3153495526,,,37,Oswego,3,Central New York Regional Office,Oswego Hospital,727,3702000H,Oswego Hospital Inc,110 West Sixth Street,,Oswego,New York,13126,,,,,New York,,Not for Profit Corporation,43.450497,-76.490562,"(43.450497, -76.490562)"
6808,"La Casa De Salud, Inc.",DTC,Diagnostic and Treatment Center,01/09/2006,966 Prospect Avenue,,Bronx,New York,10459,7188421412,,,7094,Bronx,5,Metropolitan Area Regional Office - New York City,,,7000271R,"La Casa De Salud, Inc",966 Prospect Avenue,,Bronx,New York,10459,,,,,New York,,Not for Profit Corporation,40.822506,-73.90036,"(40.822506, -73.90036)"
730,Oswego County Health Dept,DTC,Diagnostic and Treatment Center,09/27/1979,70 Bunner Street,,Oswego,New York,13126,3153493545,,,37,Oswego,3,Central New York Regional Office,,,3702201R,Oswego County Health Department,70 Bunner Street,,Oswego,New York,13126,,,,,New York,,County,43.450394,-76.490829,"(43.450394, -76.490829)"
729,Oswego County Opportunities Inc,DTC,Diagnostic and Treatment Center,01/01/1901,10 George Street,,Oswego,New York,13126,3155984735,,,37,Oswego,3,Central New York Regional Office,,,3702200R,Oswego County Opportunities Inc,223 Oneida Street,,Fulton,New York,13069,,,,,New York,,Not for Profit Corporation,43.466839,-76.485199,"(43.466839, -76.485199)"
102,UPMC Chautauqua at WCA,HOSP,Hospital,08/17/1990,51 Glasgow Avenue,,Jamestown,New York,14701,7164870141,7166648336,,6,Chautauqua,1,Western Regional Office - Buffalo,UPMC Chautauqua at WCA,103,0602001H,UPMC Chautauqua at WCA,207 Foote Avenue,,Jamestown,New York,14701,"UPMC Chautauqua Services, Inc.",207 Foote Avenue,,Jamestown,New York,14701,Not for Profit Corporation,42.091541,-79.245094,"(42.091541, -79.245094)"
9444,NY Med,DTC,Diagnostic and Treatment Center,02/22/2013,69-15b Austin Street,,Forest Hills,New York,11375,7185750300,,,7096,Queens,5,Metropolitan Area Regional Office - New York City,,,7003275R,"Queens Medical Pavilion, LLC",69-15b Austin Street,,Forest Hills,New York,11375,,,,,New York,,LLC,40.721569,-73.84848,"(40.721569, -73.84848)"
9804,Empire State Ambulatory Surgery Center,DTC,Diagnostic and Treatment Center,02/19/2015,3170 Webster Avenue,,Bronx,New York,10467,,,,7094,Bronx,5,Metropolitan Area Regional Office - New York City,,,7000284R,"Bronx SC, LLC",3170 Webster Avenue,,Bronx,New York,10467,,,,,New York,,LLC,40.872658,-73.874819,"(40.872658, -73.874819)"
10138,Cornerstone Urgent Care Center,DTC,Diagnostic and Treatment Center,04/18/2018,2968 Chili Avenue,,Chili,New York,14624,,,,27,Monroe,2,Western Regional Office - Rochester,,,2751200R,"Cornerstone Urgent Care Center, LLC",2968 Chili Avenue,,Chili,New York,14624,,,,,New York,,LLC,43.115259,-77.729796,"(43.115259, -77.729796)"
7851,Cataract Center for the Adirondacks,DTC,Diagnostic and Treatment Center,09/21/1999,450 Margaret St,,Plattsburgh,New York,12901,5185613144,,,9,Clinton,4,Capital District Regional Office,,,0901202R,"Plattsburgh Asc,LLC",450 Margaret St,,Plattsburgh,New York,12901,,,,,New York,,LLC,44.716404,-73.444206,"(44.716404, -73.444206)"
989,HealthAlliance Hospital Mary's Avenue Campus,HOSP,Hospital,01/01/1901,105 Marys Avenue,,Kingston,New York,12401,8453382500,,,55,Ulster,6,Metropolitan Area Regional Office - New Rochelle,,,5501000H,HealthAlliance Hospital Mary's Avenue Campus,105 Mary's Avenue,,Kingston,New York,12401,Westchester County Health Care Corporation,"100 Woods Road, Taylor Pavilion 2nd Floor",,Valhalla,New York,10595,Not for Profit Corporation,41.922276,-73.999237,"(41.922276, -73.999237)"
9700,Lenox Health Greenwich Village,HOSP,Hospital,07/17/2014,30 Seventh Avenue,,New York,New York,10011,5164658018,,,7093,New York,5,Metropolitan Area Regional Office - New York City,Lenox Hill Hospital,1450,7002017H,Lenox Hill Hospital,100 East 77 Street,,New York,New York,10021,"Northwell Quality and Medical Affairs, Inc.",2000 Marcus Ave.,,New Hyde Park,New York,11042,Not for Profit Corporation,40.737576,-74.000488,"(40.737576, -74.000488)"
9463,"Queens Boulevard ASC, LLC",DTC,Diagnostic and Treatment Center,03/25/2013,95-25 Queens Boulevard,,Rego Park,New York,11374,7184068000,7182751330,,7096,Queens,5,Metropolitan Area Regional Office - New York City,,,7003276R,"Queens Boulevard ASC, LLC",95-25 Queens Boulevard,,Rego Park,New York,11374,,,,,New York,,LLC,40.730934,-73.863846,"(40.730934, -73.863846)"
1022,Granville Center for Rehabilitation and Nursing,NH,Residential Health Care Facility - SNF,03/01/1988,17 Madison Street,,Granville,New York,12832,5186422710,5186421318,,57,Washington,4,Capital District Regional Office,,,5725306N,IR Operations Associates LLC,17 Madison Street,,Granville,New York,12832,,,,,New York,,LLC,43.404465,-73.271011,"(43.404465, -73.271011)"
281,Jennie B Richmond Chaffee Nursing Home Company Inc,NH,Residential Health Care Facility - SNF,01/01/1901,222 East Main Street,,Springville,New York,14141,7165922871,,,14,Erie,1,Western Regional Office - Buffalo,,,1427000N,Jennie B Richmond Chaffee Nursing Home Co Inc,222 East Main Street,,Springville,New York,14141,,,,,New York,,Not for Profit Corporation,42.508579,-78.659195,"(42.508579, -78.659195)"
9362,Menorah Campus Health Services,DTC,Diagnostic and Treatment Center,05/24/2012,461 John James Audubon Parkway,,Amherst,New York,14228,7162503108,,,14,Erie,1,Western Regional Office - Buffalo,,,1451203R,"Menorah Campus Health Services, Inc",461 John James Audubon Parkway,,Amherst,New York,14228,,,,,New York,,Not for Profit Corporation,43.015785,-78.782272,"(43.015785, -78.782272)"
6224,The Massena Free Clinic for Adults Inc,DTC,Diagnostic and Treatment Center,10/07/1999,139 Main Street,,Massena,New York,13662,3157698017,,,44,Saint Lawrence,3,Central New York Regional Office,,,4402200R,The Massena Free Clinic for Adults Inc,159 Main Street,,Massena,New York,13662,,,,,New York,,Not for Profit Corporation,44.928432,-74.891869,"(44.928432, -74.891869)"
931,Sunrise Manor Center for Nursing and Rehabilitation,NH,Residential Health Care Facility - SNF,02/01/1989,1325 Brentwood Road,,Bay Shore,New York,11706,6316654960,6316659411,,51,Suffolk,7,Metropolitan Area Regional Office - Long Island,,,5154312N,"Sunrise Manor Nursing Home, Inc",1325 Brentwood Road,,Bay Shore,New York,11706,,,,,New York,,Business Corporation,40.740219,-73.239174,"(40.740219, -73.239174)"
9518,The New York Eye Surgical Center,DTC,Diagnostic and Treatment Center,07/31/2013,135 North Road,Building 2,Wilton,New York,12831,,,,45,Saratoga,4,Capital District Regional Office,,,4569200R,"North Country EC, LLC",135 North Road,,Wilton,New York,12831,,,,,New York,,LLC,43.178303,-73.721382,"(43.178303, -73.721382)"
6484,"Perry Avenue Family Medical Center, Inc.",DTC,Diagnostic and Treatment Center,11/19/2002,3071 Perry Avenue,,Bronx,New York,10467,7182316700,,,7094,Bronx,5,Metropolitan Area Regional Office - New York City,,,7000263R,"Perry Avenue Family Medical Center, Inc.",3071 Perry Avenue,,Bronx,New York,10467,,,,,New York,,Business Corporation,40.872791,-73.879303,"(40.872791, -73.879303)"
1605,Amsterdam Nursing Home Corp (1992),NH,Residential Health Care Facility - SNF,02/01/1989,1060 Amsterdam Avenue,,New York,New York,10025,2126782600,,,7093,New York,5,Metropolitan Area Regional Office - New York City,,,7002356N,Amsterdam Nursing Home Corporation (1992),1060 Amsterdam Avenue,,New York,New York,10025,,,,,New York,,Not for Profit Corporation,40.804531,-73.962807,"(40.804531, -73.962807)"
1376,Schulman and Schachne Institute for Nursing And Rehabilitation,NH,Residential Health Care Facility - SNF,01/01/1901,555 Rockaway Parkway,,Brooklyn,New York,11212,7182405775,,,7095,Kings,5,Metropolitan Area Regional Office - New York City,,,7001318N,"The Schulman and Schachne Institute for Nursing And Rehab,Inc",One Brookdale Plaza,,Brooklyn,New York,11212,"One Brooklyn Health System, Inc.",1 Brookdale Plaza,Care of Alex Rovt Chairman of the Board,Brooklyn,New York,11212,Not for Profit Corporation,40.655045,-73.913261,"(40.655045, -73.913261)"
6721,"Central Brooklyn Dialysis Center, LLC",DTC,Diagnostic and Treatment Center,12/24/2004,818 Sterling Place,,Brooklyn,New York,11216,7187356660,,,7095,Kings,5,Metropolitan Area Regional Office - New York City,,,7001118R,"Central Brooklyn Dialysis Center, LLC",739 East New York Avenue,,Brooklyn,New York,11216,,,,,New York,,LLC,40.672531,-73.951286,"(40.672531, -73.951286)"
6232,The Grand Rehabilitation and Nursing at River Valley,NH,Residential Health Care Facility - SNF,04/03/2001,140 Main St,,Poughkeepsie,New York,12601,8454547600,8454548234,,13,Dutchess,6,Metropolitan Area Regional Office - New Rochelle,,,1302309N,River Valley Operating Associates LLC,1720 Whitestone Expressway,Suite 500,Whitestone,New York,11357,,,,,New York,,LLC,41.705238,-73.933678,"(41.705238, -73.933678)"
687,Orange County Health Department,DTC,Diagnostic and Treatment Center,07/19/1979,124 Main Street,,Goshen,New York,10924,8452947961,,,35,Orange,6,Metropolitan Area Regional Office - New Rochelle,,,3501200R,Orange County,255 Main Street,,Goshen,New York,10924,,,,,New York,,County,41.402603,-74.321541,"(41.402603, -74.321541)"
4328,Highbridge Woodycrest Center,NH,Residential Health Care Facility - SNF,05/06/1991,936 Woodycrest Avenue,,Bronx,New York,10452,7185798875,,,7094,Bronx,5,Metropolitan Area Regional Office - New York City,,,7000801N,YGC at Woodycrest LLC,2392 Nostrand Avenue,,New York,New York,11210,,,,,New York,,LLC,40.830883,-73.929268,"(40.830883, -73.929268)"
4067,Central New York Eye Center,DTC,Diagnostic and Treatment Center,02/11/2002,22 Green Street,,Poughkeepsie,New York,12601,8454713720,,,13,Dutchess,6,Metropolitan Area Regional Office - New Rochelle,,,1302209R,Central New York Eye Center Ltd,22 Green St,,Poughkeepsie,New York,12601,,,,,New York,,Not for Profit Corporation,41.716999,-73.92421,"(41.716999, -73.92421)"
1320,University Hospital of Brooklyn,HOSP,Hospital,01/01/1901,445 Lenox Road,,Brooklyn,New York,11203,7182702401,,,7095,Kings,5,Metropolitan Area Regional Office - New York City,,,7001037H,State of New York,178-50 Linden Blvd,,Jamaica,New York,11434,,,,,New York,,State,40.654518,-73.945045,"(40.654518, -73.945045)"
6457,"South Shore Ambulatory Surgery Center, LLC",DTC,Diagnostic and Treatment Center,10/11/2002,"444 Merrick Road, 4th Floor",,Lynbrook,New York,11563,5168870890,,,29,Nassau,7,Metropolitan Area Regional Office - Long Island,,,2907200R,"South Shore Ambulatory Surgery Center, LLC","444 Merrick Road, 4th Floor",,Lynbrook,New York,11563,,,,,New York,,LLC,40.658588,-73.677254,"(40.658588, -73.677254)"
1447,Hospital for Special Surgery,HOSP,Hospital,01/01/1901,535 E 70th Street,,New York,New York,10021,2126061236,,,7093,New York,5,Metropolitan Area Regional Office - New York City,,,7002012H,NY Society for the Relief of The Ruptured & Crippled,535 East 70th St,,New York,New York,10021,,,,,New York,,Not for Profit Corporation,40.765381,-73.954185,"(40.765381, -73.954185)"
5714,Finger Lakes Center for Living,NH,Residential Health Care Facility - SNF,07/24/1995,20 Park Avenue,,Auburn,New York,13021,3152557188,,,5,Cayuga,3,Central New York Regional Office,,,0501000N,Auburn Community Hospital,Lansing Street,,Auburn,New York,13021,,,,,New York,,Not for Profit Corporation,42.942368,-76.565025,"(42.942368, -76.565025)"
9682,Mobile Medical 4,,Mobile Hospital Extension Clinic,05/23/2014,2905 West 19th Street,,Brooklyn,New York,11224,,,,7095,Kings,5,Metropolitan Area Regional Office - New York City,Coney Island Hospital,1294,7001009H,New York City Health and Hospital Corporation,125 Worth Street,,New York,New York,10013,,,,,New York,,Municipality,40.576656,-73.985779,"(40.576656, -73.985779)"
3243,Elderwood at Liverpool,NH,Residential Health Care Facility - SNF,12/31/1984,4800 Bear Road,,Liverpool,New York,13088,3154579946,,,33,Onondaga,3,Central New York Regional Office,,,3331301N,"4800 Bear Road Operating Company, LLC",4800 Bear Road,,Liverpool,New York,13088,,,,,New York,,LLC,43.122807,-76.181442,"(43.122807, -76.181442)"
9135,Good Shepherd Village at Endwell,NH,Residential Health Care Facility - SNF,04/12/2010,14 Village Drive,,Endwell,New York,13760,6077573102,6077573103,,3,Broome,3,Central New York Regional Office,,,0363301N,"Good Shepherd at Endwell, Inc.",80 Fairview Avenue,,Binghamton,New York,13904,,,,,New York,,Not for Profit Corporation,42.147995,-76.021034,"(42.147995, -76.021034)"
635,University Hospital SUNY Health Science Center,HOSP,Hospital,01/01/1901,750 East Adams Street,,Syracuse,New York,13210,3154645540,,,33,Onondaga,3,Central New York Regional Office,,,3301007H,State University of New York,178-50 Linden Blvd,,Jamaica,New York,11434,,,,,New York,,State,43.042622,-76.138809,"(43.042622, -76.138809)"
992,Ulster County Health Department,DTC,Diagnostic and Treatment Center,09/27/1979,239 Golden Hill Lane,,Kingston,New York,12402,8453387019,,,55,Ulster,6,Metropolitan Area Regional Office - New Rochelle,,,5501201R,Ulster County Health Department,Box 1800 244 Fair Street,,Kingston,New York,12401,,,,,New York,,County,41.917077,-74.017495,"(41.917077, -74.017495)"
306,Adirondack Medical Center-Lake Placid Site,HOSP,Hospital,01/01/1991,203 Old Military Road,,Lake Placid,New York,12946,5185233311,,,15,Essex,4,Capital District Regional Office,Adirondack Medical Center-Saranac Lake Site,324,1623001H,Adirondack Medical Center,Lake Colby Drive,,Saranac Lake,New York,12983,,,,,New York,,Not for Profit Corporation,44.266376,-73.98455,"(44.266376, -73.98455)"
10291,Southern Tier Women's Health Services,DTC,Diagnostic and Treatment Center,06/14/2019,149 Vestal Parkway West,,Vestal,New York,13850,6077853429,,,3,Broome,3,Central New York Regional Office,,,0364202R,"Southern Tier Women's Health Services, LLC",149 Vestal Parkway West,,Vestal,New York,13851,,,,,New York,,LLC,,,
10108,Delhi Rehabilitation and Nursing Center,NH,Residential Health Care Facility - SNF,01/02/2018,41861 State Route 10,,Delhi,New York,13753,6074644444,6074644445,,12,Delaware,4,Capital District Regional Office,,,1254302N,"DRNC Operating, LLC",41861 State Route 10,,Delhi,New York,13753,,,,,New York,,LLC,42.257166,-74.948713,"(42.257166, -74.948713)"
1245,Pelham Parkway Nursing Care and Rehabilitation Facility LLC,NH,Residential Health Care Facility - SNF,01/01/1901,2401 Laconia Ave,,Bronx,New York,10469,7187988600,,,7094,Bronx,5,Metropolitan Area Regional Office - New York City,,,7000338N,Pelham Parkway Nursing Care and Rehabilitation Facility LLC,2401 Laconia Avenue,,Bronx,New York,10469,,,,,New York,,LLC,40.861217,-73.855995,"(40.861217, -73.855995)"
1680,"Sapphire Center for Rehabilitation and Nursing of Central Queens, LLC",NH,Residential Health Care Facility - SNF,08/01/1979,35-15 Parsons Blvd,,Flushing,New York,11354,7189613500,7184611784,,7096,Queens,5,Metropolitan Area Regional Office - New York City,,,7003415N,"Sapphire Center for Rehabilitation and Nursing of Central Queens, LLC",35-15 Parsons Boulevard,,Flushing,New York,11354,,,,,New York,,LLC,40.765556,-73.823601,"(40.765556, -73.823601)"
9744,"PBGS, LLC",DTC,Diagnostic and Treatment Center,10/02/2014,14 DeKalb Avenue,,Brooklyn,New York,11201,,,,7095,Kings,5,Metropolitan Area Regional Office - New York City,,,7002805R,"PBGS, LLC","14 DeKalb Ave., 4th Floor",,Brooklyn,New York,11201,,,,,New York,,LLC,,,
346,Genesee County Health Department,DTC,Diagnostic and Treatment Center,09/27/1979,3837 West Main Street Road,,Batavia,New York,14020,5853442580,,,18,Genesee,1,Western Regional Office - Buffalo,,,1852200R,Genesee County Health Department,Main Street,,Batavia,New York,14020,,,,,New York,,County,43.007389,-78.226723,"(43.007389, -78.226723)"
756,Samaritan Hospital,HOSP,Hospital,01/01/1901,2215 Burdett Avenue,,Troy,New York,12180,5182713300,,,41,Rensselaer,4,Capital District Regional Office,,,4102002H,Samaritan Hospital of Troy NY Inc,2215 Burdett Avenue,,Troy,New York,12180,St. Peter's Health Partners,315 South Manning Boulevard,,Albany,New York,12208,Not for Profit Corporation,42.733574,-73.671455,"(42.733574, -73.671455)"
377,"River Hospital, Inc.",,Primary Care Hospital - Critical Access Hospital,01/30/1980,4 Fuller Street,,Alexandria Bay,New York,13607,3154822511,,,22,Jefferson,3,Central New York Regional Office,,,2221700C,"River Hospital, Inc.",4 Fuller Street,,Alexandria Bay,New York,13607,,,,,New York,,Not for Profit Corporation,44.337296,-75.919991,"(44.337296, -75.919991)"
2975,Center for Comprehensive Health Practice Inc,DTC,Diagnostic and Treatment Center,04/30/1990,1900 Second Avenue,,New York,New York,10029,2123607874,,,7093,New York,5,Metropolitan Area Regional Office - New York City,,,7002134R,Center for Comprehensive Health Practice Inc,163 East 97th Street,,New York,New York,10029,,,,,New York,,Not for Profit Corporation,40.785938,-73.945763,"(40.785938, -73.945763)"
8614,Meadowbrook Endoscopy Center,DTC,Diagnostic and Treatment Center,10/15/2008,865 Merrick Road - Unit 150 North,,Westbury,New York,11590,5165423636,,,29,Nassau,7,Metropolitan Area Regional Office - Long Island,,,2914200R,"Gastro Operating Company, LLC",865 Merrick Road - Unit 150 North,,Westbury,New York,11590,,,,,New York,,LLC,40.745575,-73.587082,"(40.745575, -73.587082)"
6304,Albany Regional Eye Surgery Center,DTC,Diagnostic and Treatment Center,08/28/2001,5 Johnson Road,,Latham,New York,12110,5187821181,,,1,Albany,4,Capital District Regional Office,,,0153204R,Albany Regional Eye Surgery Center LLC,5 Johnson Road,,Latham,New York,12110,,,,,New York,,LLC,42.762611,-73.748634,"(42.762611, -73.748634)"
3989,Gurwin Jewish Nursing and Rehabilitation Center,NH,Residential Health Care Facility - SNF,10/17/1988,68 Hauppauge Road,,Commack,New York,11725,6314996500,6317152908,,51,Suffolk,7,Metropolitan Area Regional Office - Long Island,,,5153307N,Rosalind & Joseph Gurwin Jewish Geriatric Ctr of Long Island Inc,68 Hauppauge Road,,Commack,New York,11725,,,,,New York,,Not for Profit Corporation,40.828209,-73.299896,"(40.828209, -73.299896)"
7742,DCI-Westchester,DTC,Diagnostic and Treatment Center,12/01/2000,19 Bradhurst Ave,,Hawthorne,New York,10532,9145925858,,,59,Westchester,6,Metropolitan Area Regional Office - New Rochelle,,,5957201R,"Dialysis Clinic, Inc","1633 Church Street, Suite 500",,Nashville,New York,37203,,,,,New York,,Not for Profit Corporation,41.088585,-73.801147,"(41.088585, -73.801147)"
71,The Pines Healthcare & Rehabilitation Centers Olean Campus,NH,Residential Health Care Facility - SNF,01/01/1901,2245 West State Street,,Olean,New York,14760,7163731910,,,4,Cattaraugus,1,Western Regional Office - Buffalo,,,0401303N,County of Cattaraugus,302 Laurens Street,,Olean,New York,14760,,,,,New York,,County,42.077087,-78.457413,"(42.077087, -78.457413)"
1569,Isabella Geriatric Center Inc,NH,Residential Health Care Facility - SNF,02/01/1989,515 Audubon Avenue,,New York,New York,10040,2127819800,,,7093,New York,5,Metropolitan Area Regional Office - New York City,,,7002352N,Isabella Geriatric Center Inc,515 Audubon Avenue,,New York,New York,10040,,,,,New York,,Not for Profit Corporation,40.854774,-73.927841,"(40.854774, -73.927841)"
1364,King David Center for Nursing and Rehabilitation,NH,Residential Health Care Facility - SNF,01/01/1901,2266 Cropsey Avenue,,Brooklyn,New York,11214,7182666100,7183732825,,7095,Kings,5,Metropolitan Area Regional Office - New York City,,,7001803N,SGRNC LLC,2266 Cropsey Avenue,,Brooklyn,New York,11214,,,,,New York,,LLC,40.596001,-73.99736,"(40.596001, -73.99736)"
1698,Park Terrace Care Center,NH,Residential Health Care Facility - SNF,04/28/1991,59-20 Van Doren Street,,Rego Park,New York,11368,7185929200,,,7096,Queens,5,Metropolitan Area Regional Office - New York City,,,7003374N,Park Terrace Care Center Inc,59-20 Van Doren Street,,Rego Park,New York,11368,,,,,New York,,Business Corporation,40.738827,-73.849312,"(40.738827, -73.849312)"
9892,Ambulatory Surgery Center of Niagara,DTC,Diagnostic and Treatment Center,03/10/2016,"6500 Porter Road, Suite 2030",,Niagara Falls,New York,14304,,,,31,Niagara,1,Western Regional Office - Buffalo,,,3102208R,"Niagara ASC, LLC",2825 Niagara Falls Blvd,Suite 130,Amherst,New York,14228,,,,,New York,,LLC,43.108253,-78.990259,"(43.108253, -78.990259)"
779,Good Samaritan Hospital of Suffern,HOSP,Hospital,01/01/1901,255 Lafayette Avenue,,Suffern,New York,10901,8453685000,,,43,Rockland,6,Metropolitan Area Regional Office - New Rochelle,,,4329000H,Good Samaritan Hosp of Suffern,Route 59,,Suffern,New York,10901,Bon Secours Charity Health System Inc.,255 Lafayette Avenue,,Suffern,New York,10901,Not for Profit Corporation,41.112255,-74.133003,"(41.112255, -74.133003)"
38,Cuba Memorial Hospital Inc SNF,NH,Residential Health Care Facility - SNF,01/01/1901,140 West Main Street,,Cuba,New York,14727,5859682000,,,2,Allegany,1,Western Regional Office - Buffalo,,,0226000N,Cuba Memorial Hospital Inc,140 West Main St,,Cuba,New York,14727,,,,,New York,,Not for Profit Corporation,42.213474,-78.287506,"(42.213474, -78.287506)"
3164,Kirkhaven,NH,Residential Health Care Facility - SNF,02/20/1984,254 Alexander Street,,Rochester,New York,14607,5854611991,,,27,Monroe,2,Western Regional Office - Rochester,,,2701345N,Genesee Valley Presbyterian Nursing Center,254 Alexander Street,,Rochester,New York,14607,,,,,New York,,Not for Profit Corporation,43.151859,-77.595985,"(43.151859, -77.595985)"
546,Sands Point Center for Health and Rehabilitation,NH,Residential Health Care Facility - SNF,02/01/1980,1440 Port Washington Blvd,,Port Washington,New York,11050,5167199400,5167199512,,29,Nassau,7,Metropolitan Area Regional Office - Long Island,,,2951304N,AGMA Inc,1440 Port Washington Blvd,,Port Washington,New York,11050,,,,,New York,,Business Corporation,40.843124,-73.690155,"(40.843124, -73.690155)"
6323,"The Center for Discovery, Inc.",DTC,Diagnostic and Treatment Center,02/28/2002,606 Old Route 17,,Monticello,New York,12701,8457941400,,,52,Sullivan,6,Metropolitan Area Regional Office - New Rochelle,,,5263200R,"The Center for Discovery, Inc.",102 Wawanda Avenue,,Liberty,New York,12754,,,,,New York,,Not for Profit Corporation,41.696243,-74.731583,"(41.696243, -74.731583)"
9185,South Shore Surgery Center,DTC,Diagnostic and Treatment Center,12/17/2010,53 Brentwood Road,,Bay Shore,New York,11706,6316475550,,,51,Suffolk,7,Metropolitan Area Regional Office - Long Island,,,5154210R,"South Shore Surgery Center, LLC",53 Brentwood Road,,Bay Shore,New York,11706,,,,,New York,,LLC,40.730263,-73.235695,"(40.730263, -73.235695)"
564,The Grand Rehabilitation and Nursing at South Point,NH,Residential Health Care Facility - SNF,02/01/1979,One Long Beach Road,,Island Park,New York,11558,5164320300,5164320728,,29,Nassau,7,Metropolitan Area Regional Office - Long Island,,,2961303N,"Grand South Point, LLC",One Long Beach Road,,Island Park,New York,11558,,,,,New York,,LLC,40.599171,-73.65593,"(40.599171, -73.65593)"
9472,"Samaritan Senior Village, Inc.",NH,Residential Health Care Facility - SNF,04/05/2013,22691 Campus Drive,,Watertown,New York,13601,3157826800,3157854190,,22,Jefferson,3,Central New York Regional Office,,,2269300N,"Samaritan Senior Village, Inc.",830 Washington Street,,Watertown,New York,13601,Samaritan Medical Center,830 Washington St,,Watertown,New York,13601,Not for Profit Corporation,43.988098,-75.937401,"(43.988098, -75.937401)"
5970,Columbia-Greene Dialysis Centers,DTC,Diagnostic and Treatment Center,03/05/2003,Sherman Potts Road,,Ghent,New York,12075,5188280717,,,10,Columbia,4,Capital District Regional Office,,,1059202R,"Green Manor Dialysis Center, LLC",30 Green Manor Avenue,,Ghent,New York,12075,,,,,New York,,LLC,42.230965,-73.878738,"(42.230965, -73.878738)"
594,Bethany Gardens Skilled Living Center,NH,Residential Health Care Facility - SNF,01/01/1991,800 West Chestnut Street,,Rome,New York,13440,3153393210,,,32,Oneida,3,Central New York Regional Office,,,3201308N,"Bethany Operating Co., LLC",800 West Chestnut Street,,Rome,New York,13440,,,,,New York,,LLC,43.236221,-75.452438,"(43.236221, -75.452438)"
1046,Winifred Masterson Burke Rehabilitation Hospital,HOSP,Hospital,01/01/1901,785 Mamaroneck Avenue,,White Plains,New York,10605,9149480050,,,59,Westchester,6,Metropolitan Area Regional Office - New Rochelle,,,5902002H,The Winifred Masterson Burke Rehabilitation Foundation Inc,785 Mamaroneck Avenue,,White Plans,New York,10605,"Montefiore Health System, Inc",111 East 210th Street,,Bronx,New York,10467,Not for Profit Corporation,41.015186,-73.75573,"(41.015186, -73.75573)"
817,Clifton-Fine Hospital,,Primary Care Hospital - Critical Access Hospital,08/01/1980,1014 Oswegatchie Trail PO Box 10,,Star Lake,New York,13690,3158483351,,,44,Saint Lawrence,3,Central New York Regional Office,,,4458701C,Clifton-Fine Health Care Corporation,1014 Oswegatchie Trail,,Star Lake,New York,13690,,,,,New York,,Not for Profit Corporation,44.162724,-75.055809,"(44.162724, -75.055809)"
10273,Mount Sinai Mobile Mammography Van,,Mobile Hospital Extension Clinic,10/11/2018,1470 Madison Avenue,,New York,New York,10029,,,,7093,New York,5,Metropolitan Area Regional Office - New York City,Mount Sinai Hospital,1456,7002024H,The Mount Sinai Hospital,One Gustave L Levy Place,,New York,New York,10029,"Mount Sinai Hospitals Group, Inc.",One Gustave L. Levy Place,,New York,New York,10029,Not for Profit Corporation,,,
207,Buffalo General Medical Center,HOSP,Hospital,02/01/1980,100 High Street,,Buffalo,New York,14203,7168595600,,,14,Erie,1,Western Regional Office - Buffalo,,,1401014H,Kaleida Health,100 High Street,,Buffalo,New York,14203,,,,,New York,,Not for Profit Corporation,42.900394,-78.865707,"(42.900394, -78.865707)"
60,"Susquehanna Nursing & Rehabilitation Center, LLC",NH,Residential Health Care Facility - SNF,08/01/1983,282 Riverside Dr,,Johnson City,New York,13790,6077299206,,,3,Broome,3,Central New York Regional Office,,,0303307N,"Susquehanna Nursing & Rehabilitation Center, LLC",282 Riverside Drive,,Johnson City,New York,13790,,,,,New York,,LLC,42.10033,-75.958817,"(42.10033, -75.958817)"
6288,Ryan/Chelsea-Clinton Community Health Center,DTC,Diagnostic and Treatment Center,09/05/2001,645 Tenth Ave,,New York,New York,10036,2122654500,,,7093,New York,5,Metropolitan Area Regional Office - New York City,,,7002169R,"Ryan/Chelsea-Clinton Community Health Center, Inc.",645 Tenth Ave,,New York,New York,10036,,,,,New York,,Not for Profit Corporation,40.76181,-73.99395,"(40.76181, -73.99395)"
4823,Richmond Center for Rehabilitation and Specialty Healthcare,NH,Residential Health Care Facility - SNF,01/07/1994,91 Tompkins Avenue,,Staten Island,New York,10304,7188761200,7188761393,,7097,Richmond,5,Metropolitan Area Regional Office - New York City,,,7004324N,"SV Operating Three, LLC",91 Tompkins Avenue,,Staten Island,New York,10304,,,,,New York,,LLC,40.622379,-74.078377,"(40.622379, -74.078377)"
4086,"NYSARC, Inc",DTC,Diagnostic and Treatment Center,04/07/1989,75 Jones and Gifford Avenue,,Jamestown,New York,14701,7166611541,,,6,Chautauqua,1,Western Regional Office - Buffalo,,,0602201R,"NYSARC, Inc",75 Jones And Gifford Avenue,,Jamestown,New York,14701,,,,,New York,,Not for Profit Corporation,42.100887,-79.255348,"(42.100887, -79.255348)"
39,Memorial Hosp of Wm F & Gertrude F Jones A/K/A Jones Memorial Hosp,HOSP,Hospital,01/01/1901,191 North Main Street,,Wellsville,New York,14895,5855931100,,,2,Allegany,1,Western Regional Office - Buffalo,,,0228000H,The Memorial Hospital of William F & Gertrude F Jones Inc,191 North Main Street,,Wellsville,New York,14895,,,,,New York,,Not for Profit Corporation,42.122921,-77.949974,"(42.122921, -77.949974)"
4037,Bushwick Center for Rehabilitation and Health Care,NH,Residential Health Care Facility - SNF,01/01/1989,50 Sheffield Avenue,,Brooklyn,New York,11207,7183452273,7184859236,,7095,Kings,5,Metropolitan Area Regional Office - New York City,,,7001364N,"Wartburg Receiver, LLC",50 Sheffield Avenue,,Brooklyn,New York,112070000,,,,,New York,,(unknown),40.676289,-73.898109,"(40.676289, -73.898109)"
1222,Jeanne Jugan Residence,NH,Residential Health Care Facility - SNF,01/01/1901,2999 Schurz Avenue,,Bronx,New York,10465,3473291800,,,7094,Bronx,5,Metropolitan Area Regional Office - New York City,,,7000313N,Home for the Aged of The Little Sisters of The Poor Of The City Of NY,3200 Baychester Avenue,,Bronx,New York,10475,,,,,New York,,Not for Profit Corporation,40.815098,-73.811905,"(40.815098, -73.811905)"
492,Emerge Nursing and Rehabilitation at Glen Cove,NH,Residential Health Care Facility - SNF,03/31/1998,2 Medical Plaza,,Glen Cove,New York,11542,5166710858,5166710988,,29,Nassau,7,Metropolitan Area Regional Office - Long Island,,,2901304N,"Montclair Care Center, Inc",2 Medical Plaza,,Glen Cove,New York,11542,,,,,New York,,Business Corporation,40.874683,-73.623032,"(40.874683, -73.623032)"
738,ConnextCare,DTC,Diagnostic and Treatment Center,01/01/1901,61 Delano Street,,Pulaski,New York,13142,3152986564,,,37,Oswego,3,Central New York Regional Office,,,3726201R,Northern Oswego County Health Services Inc,61 Delano Street,,Pulaski,New York,13142,,,,,New York,,Not for Profit Corporation,43.570259,-76.120636,"(43.570259, -76.120636)"
96,Northwoods Rehabilitation and Nursing Center at Moravia,NH,Residential Health Care Facility - SNF,02/01/1989,7 Keeler Avenue,,Moravia,New York,13118,3154970440,3154979631,,5,Cayuga,3,Central New York Regional Office,,,0526304N,Northwoods Operations Associates LLC,7 Keeler Avenue,,Moravia,New York,13118,,,,,New York,,LLC,42.714851,-76.422775,"(42.714851, -76.422775)"
1393,The Heritage Rehabilitation and Health Care Center,NH,Residential Health Care Facility - SNF,02/01/1980,5606 15th Ave,,Brooklyn,New York,11219,7188511000,,,7095,Kings,5,Metropolitan Area Regional Office - New York City,,,7001392N,"Palm Tree Care Center, LLC",5606 15th Avenue,,Brooklyn,New York,11219,,,,,New York,,LLC,40.628391,-73.991936,"(40.628391, -73.991936)"
17,St. Peter's Nursing And Rehabilitation Center,NH,Residential Health Care Facility - SNF,01/01/1901,301 Hackett Blvd,,Albany,New York,12208,5185257600,,,1,Albany,4,Capital District Regional Office,,,0101305N,Villa Mary Immaculate,St Elizabeth Motherhouse,,Allegany,New York,14706,St Peters Hospital Inc,315 South Manning Blvd,,Albany,New York,12208,Not for Profit Corporation,42.653301,-73.805016,"(42.653301, -73.805016)"
9542,Jericho Road Community Health Center,DTC,Diagnostic and Treatment Center,09/05/2013,184 Barton Street,,Buffalo,New York,14213,,,,14,Erie,1,Western Regional Office - Buffalo,,,1401237R,Jericho Road Ministries Inc.,184 Barton Street,,Buffalo,New York,14213,,,,,New York,,Not for Profit Corporation,42.917721,-78.894379,"(42.917721, -78.894379)"
1061,Montefiore Mount Vernon Hospital,HOSP,Hospital,01/01/1901,12 North 7th Avenue,,Mount Vernon,New York,10550,9143616100,9146642113,,59,Westchester,6,Metropolitan Area Regional Office - New Rochelle,,,5903001H,"Montefiore Mount Vernon Hospital, Inc.",12 North 7th Avenue,,Mount Vernon,New York,10550,"Montefiore Health System, Inc",111 East 210th Street,,Bronx,New York,10467,Not for Profit Corporation,40.912476,-73.840004,"(40.912476, -73.840004)"
9800,"Island Ambulatory Surgery Center, L.L.C.",DTC,Diagnostic and Treatment Center,04/21/2015,2279 Coney Island Avenue,,Brooklyn,New York,11223,,,,7095,Kings,5,Metropolitan Area Regional Office - New York City,,,7001140R,"Island Ambulatory Surgery Center, L.L.C.",2279 Coney Island Avenue,,Brooklyn,New York,11223,,,,,New York,,LLC,40.601518,-73.961071,"(40.601518, -73.961071)"
368,Samaritan Keep Nursing Home Inc,NH,Residential Health Care Facility - SNF,01/01/1901,133 Pratt St,,Watertown,New York,13601,3157854400,,,22,Jefferson,3,Central New York Regional Office,,,2201000N,Samaritan Keep Nursing Home Inc,133 Pratt Street,,Watertown,New York,13601,Samaritan Medical Center,830 Washington St,,Watertown,New York,13601,Not for Profit Corporation,43.964409,-75.914154,"(43.964409, -75.914154)"
8582,Clymer Health Center,DTC,Diagnostic and Treatment Center,12/18/2006,354 Clymer Corry Road,,Clymer,New York,14724,7163552248,,,6,Chautauqua,1,Western Regional Office - Buffalo,,,0656200R,Corry Memorial Hospital Association,612 West Smith Street,,Corry,New York,16407,,,,,New York,,Not for Profit Corporation,42.015469,-79.629898,"(42.015469, -79.629898)"
6050,Townhouse Center for Rehabilitation & Nursing,NH,Residential Health Care Facility - SNF,09/27/1996,755 Hempstead Turnpike,,Uniondale,New York,11553,5165651900,5165655818,,29,Nassau,7,Metropolitan Area Regional Office - Long Island,,,2950318N,"Townhouse Operating Co., LLC",377 Oak Street,,Garden City,New York,11530,,,,,New York,,Business Corporation,40.715366,-73.60099,"(40.715366, -73.60099)"
1381,"Cobble Hill Health Center, Inc",NH,Residential Health Care Facility - SNF,01/01/1901,380 Henry Street,,Brooklyn,New York,11201,7188556789,,,7095,Kings,5,Metropolitan Area Regional Office - New York City,,,7001323N,"Cobble Hill Health Center, Inc",380 Henry Street,,Brooklyn,New York,11201,,,,,New York,,Not for Profit Corporation,40.688328,-73.997482,"(40.688328, -73.997482)"
7027,Upper Room AIDS Ministry ADHC,DTC,Diagnostic and Treatment Center,01/28/1997,123-125 West 124th Street,,New York,New York,10027,2125311300,,,7093,New York,5,Metropolitan Area Regional Office - New York City,,,7002153R,"Upper Room Aids Ministry, Inc: ADHC",123-125 West 124th Street,,New York,New York,10027,,,,,New York,,Not for Profit Corporation,40.807384,-73.946495,"(40.807384, -73.946495)"
1578,New East Side Nursing Home,NH,Residential Health Care Facility - SNF,12/01/1981,25 Bialystoker Place,,New York,New York,10002,2126738500,,,7093,New York,5,Metropolitan Area Regional Office - New York City,,,7002358N,New East Side Nursing Home LLC,25 Bialystroker Place,,New York,New York,10002,,,,,New York,,LLC,40.715988,-73.982857,"(40.715988, -73.982857)"
6920,"New York GI Center, LLC",DTC,Diagnostic and Treatment Center,02/27/2007,1200 Waters Place,,Bronx,New York,10461,7188630575,,,7094,Bronx,5,Metropolitan Area Regional Office - New York City,,,7000274R,"New York GI Center, LLC",1200 Waters Place,,Bronx,New York,10461,,,,,New York,,LLC,40.846287,-73.842094,"(40.846287, -73.842094)"
938,Peconic Bay Medical Center,HOSP,Hospital,01/01/1901,1300 Roanoke Avenue,,Riverhead,New York,11901,6315486000,,,51,Suffolk,7,Metropolitan Area Regional Office - Long Island,,,5155000H,Central Suffolk Hospital,1300 Roanoke,,Riverhead,New York,11901,"Northwell Healthcare, Inc.",2000 Marcus Ave.,,New Hyde Park,New York,11042,Not for Profit Corporation,40.933643,-72.674278,"(40.933643, -72.674278)"
193,"Northern Dutchess Res Health Care Facility, Inc",NH,Residential Health Care Facility - SNF,08/01/1980,6525 Springbrook Avenue,,Rhinebeck,New York,12572,8458713760,,,13,Dutchess,6,Metropolitan Area Regional Office - New Rochelle,,,1327302N,"Northern Dutchess Res Health Care Facility,Inc",12 Springbrook Avenue,,Rhinebeck,New York,12572,Nuvance Health,"1351 Route 55, Suite 200",,LaGrangeville,New York,12540,Not for Profit Corporation,41.934959,-73.911369,"(41.934959, -73.911369)"
8596,Mount Vernon Dialysis Center,DTC,Diagnostic and Treatment Center,08/25/2008,12 North Seventh Avenue,,Mount Vernon,New York,10550,9146654343,,,59,Westchester,6,Metropolitan Area Regional Office - New Rochelle,,,5903203R,"Mount Vernon Dialysis, LLC",153 Stevens Avenue,,Mount Vernon,New York,10550,,,,,New York,,LLC,40.912476,-73.840004,"(40.912476, -73.840004)"
10216,Cobleskill Regional Hospital,,Primary Care Hospital - Critical Access Hospital,08/20/2018,178 Grandview Drive,,Cobleskill,New York,12043,,,,47,Schoharie,4,Capital District Regional Office,,,4720700C,Bassett Hospital of Schoharie County,34 Grandview Drive,,Cobleskill,New York,12043,Bassett Healthcare Network,1 Atwell Road,,Cooperstown,New York,13326,Not for Profit Corporation,42.68683,-74.481976,"(42.68683, -74.481976)"
6214,Capital Region Ambulatory Surgery Center,DTC,Diagnostic and Treatment Center,11/21/2000,1367 Washington Ave Suite 401,,Albany,New York,12206,5184387638,,,1,Albany,4,Capital District Regional Office,,,0101220R,Capital Region Ambulatory Surgery Center LLC,1367 Washington Ave Suite 401,,Albany,New York,12206,,,,,New York,,LLC,42.685917,-73.813637,"(42.685917, -73.813637)"
1099,SJRH - Park Care Pavilion,HOSP,Hospital,08/01/1979,Two Park Avenue,,Yonkers,New York,10703,9149647300,,,59,Westchester,6,Metropolitan Area Regional Office - New Rochelle,SJRH - St Johns Division,1097,5907001H,St Johns Riverside Hospital Inc,967 North Broadway,,Yonkers,New York,10701,"Riverside Health Care System, Inc.",967 North Broadway,,Yonkers,New York,10701,Not for Profit Corporation,40.939613,-73.892181,"(40.939613, -73.892181)"
4323,Syracuse Home Association,NH,Residential Health Care Facility - SNF,08/20/1990,7740 Meigs Road,,Baldwinsville,New York,13027,3156382521,,,33,Onondaga,3,Central New York Regional Office,,,3327301N,Syracuse Home Association Inc,7740 Meigs Road,,Baldwinsville,New York,13027,,,,,New York,,Not for Profit Corporation,43.144634,-76.344734,"(43.144634, -76.344734)"
1160,Yates Co Board of Supervisors c/o County Physicians,DTC,Diagnostic and Treatment Center,09/27/1979,417 Liberty Street,,Penn Yan,New York,14527,3155365160,,,61,Yates,2,Western Regional Office - Rochester,,,6120200R,Yates County Board of Supervisors,226 Main Street,,Penn Yan,New York,14527,,,,,New York,,County,42.66309,-77.057617,"(42.66309, -77.057617)"
1693,Rego Park Nursing Home,NH,Residential Health Care Facility - SNF,08/01/1979,111-26 Corona Avenue,,Flushing,New York,11368,7185926400,,,7096,Queens,5,Metropolitan Area Regional Office - New York City,,,7003392N,Rego Park Nursing Home Ltd,111-26 Park Nursing Home,,Flushing,New York,11368,,,,,New York,,Business Corporation,40.740398,-73.849472,"(40.740398, -73.849472)"
2539,Menorah Home & Hospital for Aged & Infirm,NH,Residential Health Care Facility - SNF,06/28/1982,1516 Oriental Boulevard,,Brooklyn,New York,11235,7186464441,7186156381,,7095,Kings,5,Metropolitan Area Regional Office - New York City,,,7001372N,Menorah Home & Hospital for Aged & Infirm,871 Bushwick Avenue,,Brooklyn,New York,11221,,,,,New York,,Not for Profit Corporation,40.578274,-73.939247,"(40.578274, -73.939247)"
1335,START Treatment & Recovery Centers,DTC,Diagnostic and Treatment Center,01/01/1901,22 Chapel Street,,Brooklyn,New York,11201,7182602931,,,7095,Kings,5,Metropolitan Area Regional Office - New York City,,,7001214R,"START Treatment & Recovery Centers, Inc.",22 Chapel Street,,Brooklyn,New York,11201,,,,,New York,,Not for Profit Corporation,40.697178,-73.985657,"(40.697178, -73.985657)"
1453,Memorial Hospital for Cancer and Allied Diseases,HOSP,Hospital,01/01/1901,1275 York Avenue,,New York,New York,10065,2126392000,,,7093,New York,5,Metropolitan Area Regional Office - New York City,,,7002020H,Memorial Hospital for Cancer and Allied Diseases Inc,1275 York Avenue,,New York,New York,10021,,,,,New York,,Not for Profit Corporation,40.764386,-73.956812,"(40.764386, -73.956812)"
1630,Long Island Jewish Medical Center,HOSP,Hospital,01/01/1901,270-05 76th Ave,,New Hyde Park,New York,11040,7184707764,,,7096,Queens,5,Metropolitan Area Regional Office - New York City,,,7003004H,Long Island Jewish Medical Center,270-05 76 Avenue,,New Hyde Park,New York,11040,"Northwell Quality and Medical Affairs, Inc.",2000 Marcus Ave.,,New Hyde Park,New York,11042,Not for Profit Corporation,40.753349,-73.706848,"(40.753349, -73.706848)"
222,"Aspire of Western New York, Inc.",DTC,Diagnostic and Treatment Center,09/27/1979,7 Community Drive,,Cheektowaga,New York,14225,7165055630,,,14,Erie,1,Western Regional Office - Buffalo,,,1401204R,"Aspire of Western New York, Inc.",100 Leroy Avenue,,Buffalo,New York,14214,,,,,New York,,Not for Profit Corporation,42.931553,-78.774704,"(42.931553, -78.774704)"
10171,RGH Mobile Mammography Coach,,Mobile Hospital Extension Clinic,07/16/2018,3495 Winton Road Place,,Rochester,New York,14623,,,,27,Monroe,2,Western Regional Office - Rochester,Rochester General Hospital,411,2701003H,Rochester General Hospital Inc,905 Culver Road,,Rochester,New York,14609,Rochester Regional Health,89 Genesee Street,,Rochester,New York,14611,Not for Profit Corporation,43.079738,-77.582861,"(43.079738, -77.582861)"
9926,Port Washington Dialysis Center,DTC,Diagnostic and Treatment Center,03/01/2016,50 Seaview Boulevard,,Port Washington,New York,11050,,,,29,Nassau,7,Metropolitan Area Regional Office - Long Island,,,2951206R,"True North Dialysis Center, LLC",1 Cisney Avenue,,Floral Park,New York,11001,,,,,New York,,LLC,40.813827,-73.661853,"(40.813827, -73.661853)"
1003,Hudson Valley Rehabilitation & Extended Care Center,NH,Residential Health Care Facility - SNF,02/01/1989,260 Vineyard Ave,,Highland,New York,12528,8456917201,,,55,Ulster,6,Metropolitan Area Regional Office - New Rochelle,,,5556302N,"Hudson Valley Care Partners, LLC",260 Vineyard Avenue,,Highland,New York,12528,,,,,New York,,LLC,41.703918,-73.980133,"(41.703918, -73.980133)"
10241,Yorktown Center for Specialty Surgery,DTC,Diagnostic and Treatment Center,12/17/2018,2651 Strang Boulevard,,Yorktown Heights,New York,10598,9145566266,,,59,Westchester,6,Metropolitan Area Regional Office - New Rochelle,,,5968200R,Northern Westchester Facility Project LLC,2651 Strang Boulevard,,Yorktown Heights,New York,10598,,,,,New York,,LLC,41.294663,-73.819146,"(41.294663, -73.819146)"
6152,Forme Rehabilitation Inc,DTC,Diagnostic and Treatment Center,07/20/2000,7-11 Broadway,,White Plains,New York,10601,9147234900,,,59,Westchester,6,Metropolitan Area Regional Office - New Rochelle,,,5947200R,Forme Rehabilitation Inc,1075 Central Park Ave,,Scarsdale,New York,10583,,,,,New York,,Business Corporation,41.033409,-73.763039,"(41.033409, -73.763039)"
672,Living Center at Geneva - North,NH,Residential Health Care Facility - SNF,10/16/1979,196-198 North Street,,Geneva,New York,14456,5857874730,,,34,Ontario,2,Western Regional Office - Rochester,,,3402303N,"Geneva Nursing Home II, Inc",196-198 North Street,,Geneva,New York,14456,,,,,New York,,Not for Profit Corporation,42.875748,-76.987427,"(42.875748, -76.987427)"
394,Tri-County Family Medicine,DTC,Diagnostic and Treatment Center,09/27/1979,60 Red Jacket Street,,Dansville,New York,14437,5853353416,5853358695,,25,Livingston,2,Western Regional Office - Rochester,,,2527200R,Tri-County Family Medicine Program Inc,Red Jacket Road Box 339,,Dansville,New York,14437,,,,,New York,,Not for Profit Corporation,42.55357,-77.695084,"(42.55357, -77.695084)"
858,Schuyler Hospital,,Primary Care Hospital - Critical Access Hospital,02/27/1979,220 Steuben Street,,Montour Falls,New York,14865,6075357121,,,48,Schuyler,2,Western Regional Office - Rochester,,,4823700C,"Schuyler Hospital, Inc.",Montour & Townsend Line Road,,Montour Falls,New York,14865,"Cayuga Health System, Inc.",101 Dates Drive,,Ithaca,New York,14850,Not for Profit Corporation,42.351536,-76.858627,"(42.351536, -76.858627)"
7511,Michael Callen-Audre Lorde Community Health Center,DTC,Diagnostic and Treatment Center,03/02/1998,356 West 18th Street,,New York,New York,10011,2122717250,,,7093,New York,5,Metropolitan Area Regional Office - New York City,,,7002160R,"Community Health Project, Inc",356 West 18th Street,,New York,New York,10011,,,,,New York,,Not for Profit Corporation,40.743156,-74.003014,"(40.743156, -74.003014)"
6324,Island Nursing and Rehab Center,NH,Residential Health Care Facility - SNF,10/19/2001,5537 Expressway Drive North,,Holtsville,New York,11742,6317583336,,,51,Suffolk,7,Metropolitan Area Regional Office - Long Island,,,5151318N,Island Rehabilitation and Nursing Center Inc,5537 Expressway Drive North,,Holtsville,New York,11742,,,,,New York,,Not for Profit Corporation,40.823509,-73.026375,"(40.823509, -73.026375)"
1666,Rockaway Care Center,NH,Residential Health Care Facility - SNF,12/31/1988,353 Beach 48th Street,,Edgemere,New York,11691,7184715000,,,7096,Queens,5,Metropolitan Area Regional Office - New York City,,,7003362N,"Rockaway Care Center,LLC",353 Beach 48th Street,,Edgemere,New York,11692,,,,,New York,,LLC,40.594929,-73.77906,"(40.594929, -73.77906)"
1038,Sodus Rehabilitation & Nursing Center,NH,Residential Health Care Facility - SNF,04/01/1987,6884 Maple Ave,,Sodus,New York,14551,3154839118,3154839432,,58,Wayne,2,Western Regional Office - Rochester,,,5828302N,BVRNC Operating LLC,20 Wood Court,,Tarrytown,New York,10591,,,,,New York,,LLC,43.248711,-77.062515,"(43.248711, -77.062515)"
1201,Morrisania Diagnostic & Treatment Center,DTC,Diagnostic and Treatment Center,09/27/1979,1225-1257 Gerard Ave,,Bronx,New York,10452,7189602781,,,7094,Bronx,5,Metropolitan Area Regional Office - New York City,,,7000221R,New York City Health and Hospital Corporation,125 Worth Street,,New York,New York,10013,"Gotham Health FQHC, Inc.",Care of NYC Health and Hospital Corp.,125 Worth Street,New York,New York,10013,Municipality,40.837208,-73.919319,"(40.837208, -73.919319)"
1711,Highland Care Center,NH,Residential Health Care Facility - SNF,03/01/1989,91-31 175th Street,,Jamaica,New York,11432,7186576363,,,7096,Queens,5,Metropolitan Area Regional Office - New York City,,,7003363N,Highland Care Center Inc,91-31 175th Street,,Jamaica,New York,11432,,,,,New York,,Business Corporation,40.708519,-73.785828,"(40.708519, -73.785828)"
6270,New Hyde Park Dialysis Center,DTC,Diagnostic and Treatment Center,07/30/2001,1574-78 Hillside Ave,,New Hyde Park,New York,11040,5163275555,,,29,Nassau,7,Metropolitan Area Regional Office - Long Island,,,2912200R,New Hyde Park Dialysis Center LLC,1574-78 Hillside Ave,,New Hyde Park,New York,11040,,,,,New York,,LLC,40.747787,-73.685677,"(40.747787, -73.685677)"
9151,Queens-Long Island Renal Institute,DTC,Diagnostic and Treatment Center,04/23/2010,271-11 76th Avenue,,New Hyde Park,New York,11040,7182892669,7182892323,,7096,Queens,5,Metropolitan Area Regional Office - New York City,,,7003271R,Queens-Long Island Renal Institute,27-11 76th Avenue,,New Hyde Park,New York,11040,,,,,New York,,Not for Profit Corporation,40.753952,-73.706223,"(40.753952, -73.706223)"
7263,Ability Beyond Disability,DTC,Diagnostic and Treatment Center,10/24/1997,480 Bedford Road,,Chappaqua,New York,10514,9142420600,,,59,Westchester,6,Metropolitan Area Regional Office - New Rochelle,,,5946201R,Ability Beyond Disability,96 Lexington Avenue,,Mt Kisco,New York,10549,,,,,New York,,Not for Profit Corporation,41.181407,-73.752789,"(41.181407, -73.752789)"
384,Lewis County General Hospital-Nursing Home Unit,NH,Residential Health Care Facility - SNF,01/01/1901,7785 North State Street,,Lowville,New York,13367,3153765200,,,24,Lewis,3,Central New York Regional Office,,,2424000N,County of Lewis,Court House,,Lowville,New York,13367,,,,,New York,,County,43.795677,-75.498146,"(43.795677, -75.498146)"
30,Shaker Place Rehabilitation and Nursing Center,NH,Residential Health Care Facility - SNF,01/01/1901,100 Heritage Lane,,Albany,New York,12211,5188692231,,,1,Albany,4,Capital District Regional Office,,,0153302N,County of Albany,112 State Street,,Albany,New York,12207,,,,,New York,,County,42.747261,-73.817245,"(42.747261, -73.817245)"
4295,Fifth Avenue Surgery Center,DTC,Diagnostic and Treatment Center,08/27/1990,1049 Fifth Avenue,,New York,New York,10028,2127726667,,,7093,New York,5,Metropolitan Area Regional Office - New York City,,,7002195R,"Fifth Avenue Surgery Center, LLC",1049 Fifth Avenue,,New York,New York,10028,,,,,New York,,LLC,40.781437,-73.960388,"(40.781437, -73.960388)"
785,Tolstoy Foundation Rehabilitation and Nursing Center,NH,Residential Health Care Facility - SNF,01/01/1901,100 Lake Road,,Valley Cottage,New York,10989,8452689339,,,43,Rockland,6,Metropolitan Area Regional Office - New Rochelle,,,4350301N,Tolstoy Foundation Nursing Home Company Inc,Lake Road,,Valley Cottage,New York,10989,,,,,New York,,Not for Profit Corporation,41.124378,-73.932076,"(41.124378, -73.932076)"
1743,Easter Seals Comprehensive Primary Care D&TC,DTC,Diagnostic and Treatment Center,02/11/2002,103 White Spruce Boulevard,,Rochester,New York,14623,5852925830,,,27,Monroe,2,Western Regional Office - Rochester,,,2701234R,New York Easter Seal Society Inc,194 Washington Avenue,,Albany,New York,12210,,,,,New York,,Not for Profit Corporation,43.105232,-77.618706,"(43.105232, -77.618706)"
6265,HASC Diagnostic & Treatment Center Inc,DTC,Diagnostic and Treatment Center,07/05/2001,1221 East 14th St,,Brooklyn,New York,11230,7184344600,,,7095,Kings,5,Metropolitan Area Regional Office - New York City,,,7001298R,"HASC Diagnostic and Treatment Center, Inc",1221 East 14th St,,Brooklyn,New York,11230,,,,,New York,,Not for Profit Corporation,40.619778,-73.961235,"(40.619778, -73.961235)"
9034,Greater New York Endoscopy Surgical Center,DTC,Diagnostic and Treatment Center,04/03/2009,2211 Emmons Avenue,,Brooklyn,New York,11235,7189543535,,,7095,Kings,5,Metropolitan Area Regional Office - New York City,,,7001124R,"Brooklyn Endoscopy SC, LLC",2211 Emmons Avenue,,Brooklyn,New York,11235,,,,,New York,,LLC,40.583855,-73.946373,"(40.583855, -73.946373)"
4755,Our Lady of Mercy Life Center,NH,Residential Health Care Facility - SNF,06/07/1993,2 Mercycare Lane,,Guilderland,New York,12084,5184648100,,,1,Albany,4,Capital District Regional Office,,,0155301N,Our Lady of Mercy Life Ctr,2240 Western Avenue,,Guilderland,New York,12084,St. Peter's Health Partners,315 South Manning Boulevard,,Albany,New York,12208,Not for Profit Corporation,42.701206,-73.904831,"(42.701206, -73.904831)"
85,Auburn Community Hospital,HOSP,Hospital,01/01/1901,17 Lansing Street,,Auburn,New York,13021,3152557209,,,5,Cayuga,3,Central New York Regional Office,,,0501000H,Auburn Community Hospital,Lansing Street,,Auburn,New York,13021,,,,,New York,,Not for Profit Corporation,42.940811,-76.564758,"(42.940811, -76.564758)"
1139,Westchester Medical Center,HOSP,Hospital,01/01/1901,100 Woods Road,,Valhalla,New York,10595,9144937018,9144938027,,59,Westchester,6,Metropolitan Area Regional Office - New Rochelle,,,5957001H,Westchester County Health Care Corporation,"100 Woods Road, Taylor Pavilion 2nd Floor",,Valhalla,New York,10595,,,,,New York,,Public Benefit Corporation,41.08773,-73.803993,"(41.08773, -73.803993)"
538,Garden Care Center,NH,Residential Health Care Facility - SNF,07/31/1999,135 Franklin Avenue,,Franklin Square,New York,11010,5167752100,5167750811,,29,Nassau,7,Metropolitan Area Regional Office - Long Island,,,2950316N,"Garden Care Center,Inc",135 Franklin Avenue,,Franklin Square,New York,11010,,,,,New York,,Business Corporation,40.704697,-73.677116,"(40.704697, -73.677116)"
1512,East Harlem Council for Human Services Inc,DTC,Diagnostic and Treatment Center,01/01/1901,2265 Third Avenue,,New York,New York,10035,2122896650,,,7093,New York,5,Metropolitan Area Regional Office - New York City,,,7002217R,East Harlem Council for Human Services Inc,2253 Third Avenue,,New York,New York,10035,,,,,New York,,Not for Profit Corporation,40.802544,-73.936569,"(40.802544, -73.936569)"
778,Pine Valley Center for Rehabilitation and Nursing,NH,Residential Health Care Facility - SNF,04/20/1990,661 N Main St,,Spring Valley,New York,10977,8453560567,8453522704,,43,Rockland,6,Metropolitan Area Regional Office - New Rochelle,,,4353303N,"Pine Valley Center, LLC",39 Mariner Way,,Monsey,New York,10952,,,,,New York,,LLC,41.136238,-74.037163,"(41.136238, -74.037163)"
9230,His Branches Inc,DTC,Diagnostic and Treatment Center,07/28/2011,340 Arnett Boulevard,,Rochester,New York,14619,5852352250,5852350011,,27,Monroe,2,Western Regional Office - Rochester,,,2701240R,His Branches Inc,340 Arnett Boulevard,,Rochester,New York,14619,,,,,New York,,Not for Profit Corporation,43.142277,-77.642517,"(43.142277, -77.642517)"
9680,Island Digestive Health Center,DTC,Diagnostic and Treatment Center,05/22/2014,471 Montauk Highway,,West Islip,New York,11795,,,,51,Suffolk,7,Metropolitan Area Regional Office - Long Island,,,5154211R,"Island Digestive Health Center, LLC",471 Montauk Highway,,West Islip,New York,11795,,,,,New York,,LLC,40.697083,-73.311409,"(40.697083, -73.311409)"
305,Essex Center for Rehabilitation and Healthcare,NH,Residential Health Care Facility - SNF,01/01/1901,81 Park Street,81 Park Street,Elizabethtown,New York,12932,5188733570,,,15,Essex,4,Capital District Regional Office,,,1552300N,Essex Operations Associates LLC,81 Park Street,,Essex,New York,12932,,,,,New York,,LLC,44.214958,-73.596176,"(44.214958, -73.596176)"
459,Fairport Baptist Homes,NH,Residential Health Care Facility - SNF,01/01/1901,4646 Nine Mile Point Road,,Fairport,New York,14450,5853770350,,,27,Monroe,2,Western Regional Office - Rochester,,,2725300N,Fairport Baptist Home,4646 Nine Mile Point Road,,Fairport,New York,14450,,,,,New York,,Not for Profit Corporation,43.109913,-77.441704,"(43.109913, -77.441704)"
6519,The Knolls,NH,Residential Health Care Facility - SNF,03/10/2003,55 Grasslands Road,,Valhalla,New York,10595,9147396700,9149897827,,59,Westchester,6,Metropolitan Area Regional Office - New Rochelle,,,5957306N,Bethel Methodist Home Inc,67 Springvale Road,,Croton on Hudson,New York,10520,,,,,New York,,Not for Profit Corporation,41.069893,-73.782356,"(41.069893, -73.782356)"
5716,Highlands Living Center,NH,Residential Health Care Facility - SNF,06/29/1995,500 Hahnemann Trail,,Pittsford,New York,14534,5853831700,,,27,Monroe,2,Western Regional Office - Rochester,,,2763300N,Highlands Living Center Inc,500 Hahnemann Trail,,Pittsford,New York,14534,"Strong Partners Health System, Inc.",601 Elmwood Avenue,,Rochester,New York,14642,Not for Profit Corporation,43.087677,-77.49865,"(43.087677, -77.49865)"
547,Highfield Gardens Care Center of Great Neck,NH,Residential Health Care Facility - SNF,01/17/1990,199 Community Drive,,Great Neck,New York,11021,5163659229,5163030286,,29,Nassau,7,Metropolitan Area Regional Office - Long Island,,,2951306N,Wedgewood Care Center Inc,199 Community Drive,,Great Neck,New York,11021,,,,,New York,,Business Corporation,40.7859,-73.705101,"(40.7859, -73.705101)"
103,UPMC Chautauqua at WCA,HOSP,Hospital,01/01/1901,207 Foote Avenue,,Jamestown,New York,14701,7164870141,7166648336,,6,Chautauqua,1,Western Regional Office - Buffalo,,,0602001H,UPMC Chautauqua at WCA,207 Foote Avenue,,Jamestown,New York,14701,"UPMC Chautauqua Services, Inc.",207 Foote Avenue,,Jamestown,New York,14701,Not for Profit Corporation,42.091236,-79.232872,"(42.091236, -79.232872)"
589,"Rome Memorial Hospital, Inc",HOSP,Hospital,08/01/1979,1500 N James St,,Rome,New York,13440,3153387000,,,32,Oneida,3,Central New York Regional Office,,,3201002H,"Rome Memorial Hospital, Inc",1500 North James Street,,Rome,New York,13440,,,,,New York,,Not for Profit Corporation,43.229935,-75.443466,"(43.229935, -75.443466)"
9526,"The Surgery Center at Orthopedic Associates, LLC",DTC,Diagnostic and Treatment Center,08/16/2013,1910 South Road,,Poughkeepsie,New York,12601,8452184211,8452184230,,13,Dutchess,6,Metropolitan Area Regional Office - New Rochelle,,,1363200R,"The Surgery Center at Orthopedic Associates, LLC",1910 South Road,,Poughkeepsie,New York,12601,,,,,New York,,LLC,41.620037,-73.916939,"(41.620037, -73.916939)"
9989,Quality Kidney Care,DTC,Diagnostic and Treatment Center,11/16/2016,50-15 Beach Channel Drive,,Far Rockaway,New York,11691,,,,7096,Queens,5,Metropolitan Area Regional Office - New York City,,,7003286R,"Peninsula Continuum Services, LLC",50-15 Beach Channel Drive,,Far Rockaway,New York,11691,,,,,New York,,LLC,40.595244,-73.781094,"(40.595244, -73.781094)"
137,Clinton County Health Dept,DTC,Diagnostic and Treatment Center,09/27/1979,133 Margaret Street,,Plattsburgh,New York,12901,5185654848,,,9,Clinton,4,Capital District Regional Office,,,0901200R,Clinton County Health Department,3 Flynn Avenue,,Plattsburgh,New York,12901,,,,,New York,,County,44.698658,-73.453064,"(44.698658, -73.453064)"
6237,Wingate at Beacon,NH,Residential Health Care Facility - SNF,04/16/2001,10 Hastings Dr,,Beacon,New York,12508,8454401600,,,13,Dutchess,6,Metropolitan Area Regional Office - New Rochelle,,,1301301N,"Wingate at St. Francis, LLC",10 Hasting Dr,,Beacon,New York,12508,,,,,New York,,Business Corporation,41.509468,-73.958267,"(41.509468, -73.958267)"
498,Long Beach Nursing and Rehabilitation Center,NH,Residential Health Care Facility - SNF,01/01/1901,375 East Bay Drive,,Long Beach,New York,11561,5168971110,5168971224,,29,Nassau,7,Metropolitan Area Regional Office - Long Island,,,2902307N,"MLAP Acquisition I, LLC",375 East Bay Drive,,Long Beach,New York,11561,,,,,New York,,LLC,40.594276,-73.653496,"(40.594276, -73.653496)"
45,Broome County Health Dept,DTC,Diagnostic and Treatment Center,09/27/1979,225 Front St,,Binghamton,New York,13905,6077782802,,,3,Broome,3,Central New York Regional Office,,,0301201R,Broome County Health Department,Government Plaza - Po Box 1766,,Binghamton,New York,13902,,,,,New York,,County,42.105343,-75.915642,"(42.105343, -75.915642)"
9118,South Brooklyn Endoscopy Center,DTC,Diagnostic and Treatment Center,12/29/2009,214 Avenue P,,Brooklyn,New York,11204,7183395678,7183760405,,7095,Kings,5,Metropolitan Area Regional Office - New York City,,,7001125R,"Digestive Diseases Diagnostic and Treatment Center, LLLC",214 Avenue P,,Brooklyn,New York,11204,,,,,New York,,LLC,40.607971,-73.980148,"(40.607971, -73.980148)"
431,Aaron Manor Rehabilitation and Nursing Center,NH,Residential Health Care Facility - SNF,02/01/1989,100 St. Camillus Way,,Fairport,New York,14450,5853774000,,,27,Monroe,2,Western Regional Office - Rochester,,,2725301N,"CPR Associates, LLC",100 St. Camillus Way,,Fairport,New York,14450,,,,,New York,,LLC,43.121498,-77.441704,"(43.121498, -77.441704)"
331,Nathan Littauer Hospital Nursing Home,NH,Residential Health Care Facility - SNF,01/01/1901,99 East State Street,,Gloversville,New York,12078,5187735611,,,17,Fulton,4,Capital District Regional Office,,,1701000N,Nathan Littauer Hospital Inc,99 East State Street,,Gloversville,New York,12078,,,,,New York,,Not for Profit Corporation,43.068096,-74.330643,"(43.068096, -74.330643)"
1460,New York Eye and Ear Infirmary of Mount Sinai,HOSP,Hospital,01/01/1901,310 East 14th Street,,New York,New York,10003,2129794300,,,7093,New York,5,Metropolitan Area Regional Office - New York City,,,7002026H,NY Eye and Ear Infirmary Inc,310 East 14 St,,New York,New York,10003,"Mount Sinai Hospitals Group, Inc.",One Gustave L. Levy Place,,New York,New York,10029,Not for Profit Corporation,40.732189,-73.984711,"(40.732189, -73.984711)"
10366,Everett Road Surgery Center,DTC,Diagnostic and Treatment Center,12/11/2019,"123 Everett Road, Suite 200",,Albany,New York,12205,5184892663,,,1,Albany,4,Capital District Regional Office,,,0153206R,"Everett Road ASC, LLC",123 Everett Road,,Albany,New York,12205,,,,,New York,,LLC,,,
6998,New Alternatives for Children Inc,DTC,Diagnostic and Treatment Center,08/09/2007,37 West 26th Street,,New York,New York,10010,2126961550,,,7093,New York,5,Metropolitan Area Regional Office - New York City,,,7002185R,New Alternatives for Children Inc,37 West 26th Street,,New York,New York,10010,,,,,New York,,Not for Profit Corporation,40.744228,-73.989883,"(40.744228, -73.989883)"
5947,New York Preventive Health Center,DTC,Diagnostic and Treatment Center,03/27/1996,68-60 Austin Street,,Forest Hills,New York,11375,7183354747,7189977499,,7096,Queens,5,Metropolitan Area Regional Office - New York City,,,7003289R,Ajay 28 LLC,68-60 Austin Street,,Forest Hills,New York,11375,,,,,New York,,LLC,40.722218,-73.850571,"(40.722218, -73.850571)"
6528,Our Lady of Peace Nursing Care Residence,NH,Residential Health Care Facility - SNF,06/11/2003,5285 Lewiston Road,,Lewiston,New York,14092,7162982900,,,31,Niagara,1,Western Regional Office - Buffalo,,,3121303N,"Our Lady of Peace,Inc",5285 Lewiston Road,,Lewiston,New York,14092,,,,,New York,,Not for Profit Corporation,43.153564,-79.038345,"(43.153564, -79.038345)"
359,Herkimer County Public Health Nursing Service,DTC,Diagnostic and Treatment Center,09/27/1979,301 North Washington Street,,Herkimer,New York,13350,3158671112,,,21,Herkimer,3,Central New York Regional Office,,,2124200R,Herkimer County Public Health Nursing Service,County Office Building,,Herkimer,New York,13350,,,,,New York,,County,43.028847,-74.98719,"(43.028847, -74.98719)"
6629,"Endoscopy Center of Western New York, LLC",DTC,Diagnostic and Treatment Center,03/11/2004,60 Maple Road,,Williamsville,New York,14221,7163321000,,,14,Erie,1,Western Regional Office - Buffalo,,,1421202R,"Endoscopy Center of Western New York, LLC",60 Maple Road,,Williamsville,New York,14221,,,,,New York,,LLC,42.99139,-78.786018,"(42.99139, -78.786018)"
